$GPGSA,A,3,01,02,03,04,05,06,07,08,09,10,11,12,1.6,1.0,1.2*34
$GPGSV,3,1,12,01,45,045,50,02,45,045,50,03,45,045,50,04,45,045,50*7c
$GPGSV,3,2,12,05,45,045,50,06,45,045,50,07,45,045,50,08,45,045,50*77
$GPGSV,3,3,12,09,45,045,50,10,45,045,50,11,45,045,50,12,45,045,50*71
$GPRMC,082943.00,A,1559.6898,S,4749.4258,W,0.0,99.5,181016,0.0,E,A*36
$GPVTG,99.5,T,0.0,M,0.0,N,0.0,K*7b
$GPGGA,082943.00,1559.6898,S,4749.4258,W,12,12,1.0,911.9,M,0.0,M,0.0,0000*7b
$GPGSA,A,3,01,02,03,04,05,06,07,08,09,10,11,12,1.6,1.0,1.2*34
$GPGSV,3,1,12,01,45,045,50,02,45,045,50,03,45,045,50,04,45,045,50*7c
$GPGSV,3,2,12,05,45,045,50,06,45,045,50,07,45,045,50,08,45,045,50*77
$GPGSV,3,3,12,09,45,045,50,10,45,045,50,11,45,045,50,12,45,045,50*71
$GPRMC,082944.00,A,1559.6907,S,4749.4251,W,1.0,168.0,181016,0.0,E,A*04
$GPVTG,168.0,T,0.0,M,1.0,N,1.9,K*48
$GPGGA,082944.00,1559.6907,S,4749.4251,W,12,12,1.0,914.2,M,0.0,M,0.0,0000*7c
$GPGSA,A,3,01,02,03,04,05,06,07,08,09,10,11,12,1.6,1.0,1.2*34
$GPGSV,3,1,12,01,45,045,50,02,45,045,50,03,45,045,50,04,45,045,50*7c
$GPGSV,3,2,12,05,45,045,50,06,45,045,50,07,45,045,50,08,45,045,50*77
$GPGSV,3,3,12,09,45,045,50,10,45,045,50,11,45,045,50,12,45,045,50*71
$GPRMC,082945.00,A,1559.6914,S,4749.4248,W,1.5,198.3,181016,0.0,E,A*06
$GPVTG,198.3,T,0.0,M,1.5,N,2.8,K*43
$GPGGA,082945.00,1559.6914,S,4749.4248,W,12,12,1.0,914.3,M,0.0,M,0.0,0000*76
$GPGSA,A,3,01,02,03,04,05,06,07,08,09,10,11,12,1.6,1.0,1.2*34
$GPGSV,3,1,12,01,45,045,50,02,45,045,50,03,45,045,50,04,45,045,50*7c
$GPGSV,3,2,12,05,45,045,50,06,45,045,50,07,45,045,50,08,45,045,50*77
$GPGSV,3,3,12,09,45,045,50,10,45,045,50,11,45,045,50,12,45,045,50*71
$GPRMC,082946.00,A,1559.6914,S,4749.4248,W,0.0,214.1,181016,0.0,E,A*04
$GPVTG,214.1,T,0.0,M,0.0,N,0.0,K*48
$GPGGA,082946.00,1559.6914,S,4749.4248,W,12,12,1.0,914.1,M,0.0,M,0.0,0000*77
$GPGSA,A,3,01,02,03,04,05,06,07,08,09,10,11,12,1.6,1.0,1.2*34
$GPGSV,3,1,12,01,45,045,50,02,45,045,50,03,45,045,50,04,45,045,50*7c
$GPGSV,3,2,12,05,45,045,50,06,45,045,50,07,45,045,50,08,45,045,50*77
$GPGSV,3,3,12,09,45,045,50,10,45,045,50,11,45,045,50,12,45,045,50*71
$GPRMC,082947.00,A,1559.6922,S,4749.4239,W,1.4,167.7,181016,0.0,E,A*02
$GPVTG,167.7,T,0.0,M,1.4,N,2.5,K*4b
$GPGGA,082947.00,1559.6922,S,4749.4239,W,12,12,1.0,915.1,M,0.0,M,0.0,0000*74
$GPGSA,A,3,01,02,03,04,05,06,07,08,09,10,11,12,1.3,1.0,0.8*3a
$GPGSV,3,1,12,01,45,045,50,02,45,045,50,03,45,045,50,04,45,045,50*7c
$GPGSV,3,2,12,05,45,045,50,06,45,045,50,07,45,045,50,08,45,045,50*77
$GPGSV,3,3,12,09,45,045,50,10,45,045,50,11,45,045,50,12,45,045,50*71
$GPRMC,082948.00,A,1559.6928,S,4749.4231,W,1.4,109.7,181016,0.0,E,A*07
$GPVTG,109.7,T,0.0,M,1.4,N,2.5,K*43
$GPGGA,082948.00,1559.6928,S,4749.4231,W,12,12,1.0,915.3,M,0.0,M,0.0,0000*7b
$GPGSA,A,3,01,02,03,04,05,06,07,08,09,10,11,12,1.2,1.0,0.6*35
$GPGSV,3,1,12,01,45,045,50,02,45,045,50,03,45,045,50,04,45,045,50*7c
$GPGSV,3,2,12,05,45,045,50,06,45,045,50,07,45,045,50,08,45,045,50*77
$GPGSV,3,3,12,09,45,045,50,10,45,045,50,11,45,045,50,12,45,045,50*71
$GPRMC,082949.00,A,1559.6931,S,4749.4223,W,1.6,109.7,181016,0.0,E,A*0f
$GPVTG,109.7,T,0.0,M,1.6,N,2.9,K*4d
$GPGGA,082949.00,1559.6931,S,4749.4223,W,12,12,1.0,913.9,M,0.0,M,0.0,0000*7d
$GPGSA,A,3,01,02,03,04,05,06,07,08,09,10,11,12,1.2,1.0,0.6*35
$GPGSV,3,1,12,01,45,045,50,02,45,045,50,03,45,045,50,04,45,045,50*7c
$GPGSV,3,2,12,05,45,045,50,06,45,045,50,07,45,045,50,08,45,045,50*77
$GPGSV,3,3,12,09,45,045,50,10,45,045,50,11,45,045,50,12,45,045,50*71
$GPRMC,082950.00,A,1559.6934,S,4749.4216,W,1.6,109.7,181016,0.0,E,A*04
$GPVTG,109.7,T,0.0,M,1.6,N,2.9,K*4d
$GPGGA,082950.00,1559.6934,S,4749.4216,W,12,12,1.0,914.9,M,0.0,M,0.0,0000*71
$GPGSA,A,3,01,02,03,04,05,06,07,08,09,10,11,12,1.2,1.0,0.6*35
$GPGSV,3,1,12,01,45,045,50,02,45,045,50,03,45,045,50,04,45,045,50*7c
$GPGSV,3,2,12,05,45,045,50,06,45,045,50,07,45,045,50,08,45,045,50*77
$GPGSV,3,3,12,09,45,045,50,10,45,045,50,11,45,045,50,12,45,045,50*71
$GPRMC,082951.00,A,1559.6937,S,4749.4209,W,1.8,110.0,181016,0.0,E,A*09
$GPVTG,110.0,T,0.0,M,1.8,N,3.3,K*47
$GPGGA,082951.00,1559.6937,S,4749.4209,W,12,12,1.0,914.7,M,0.0,M,0.0,0000*73
$GPGSA,A,3,01,02,03,04,05,06,07,08,09,10,11,12,1.2,1.0,0.6*35
$GPGSV,3,1,12,01,45,045,50,02,45,045,50,03,45,045,50,04,45,045,50*7c
$GPGSV,3,2,12,05,45,045,50,06,45,045,50,07,45,045,50,08,45,045,50*77
$GPGSV,3,3,12,09,45,045,50,10,45,045,50,11,45,045,50,12,45,045,50*71
$GPRMC,082952.00,A,1559.6940,S,4749.4203,W,1.8,109.7,181016,0.0,E,A*0f
$GPVTG,109.7,T,0.0,M,1.8,N,3.3,K*48
$GPGGA,082952.00,1559.6940,S,4749.4203,W,12,12,1.0,914.4,M,0.0,M,0.0,0000*79
$GPGSA,A,3,01,02,03,04,05,06,07,08,09,10,11,12,1.2,1.0,0.6*35
$GPGSV,3,1,12,01,45,045,50,02,45,045,50,03,45,045,50,04,45,045,50*7c
$GPGSV,3,2,12,05,45,045,50,06,45,045,50,07,45,045,50,08,45,045,50*77
$GPGSV,3,3,12,09,45,045,50,10,45,045,50,11,45,045,50,12,45,045,50*71
$GPRMC,082953.00,A,1559.6942,S,4749.4199,W,1.3,110.0,181016,0.0,E,A*08
$GPVTG,110.0,T,0.0,M,1.3,N,2.4,K*4a
$GPGGA,082953.00,1559.6942,S,4749.4199,W,12,12,1.0,914.2,M,0.0,M,0.0,0000*7c
$GPGSA,A,3,01,02,03,04,05,06,07,08,09,10,11,12,1.2,1.0,0.6*35
$GPGSV,3,1,12,01,45,045,50,02,45,045,50,03,45,045,50,04,45,045,50*7c
$GPGSV,3,2,12,05,45,045,50,06,45,045,50,07,45,045,50,08,45,045,50*77
$GPGSV,3,3,12,09,45,045,50,10,45,045,50,11,45,045,50,12,45,045,50*71
$GPRMC,082954.00,A,1559.6942,S,4749.4199,W,0.0,110.0,181016,0.0,E,A*0d
$GPVTG,110.0,T,0.0,M,0.0,N,0.0,K*4e
$GPGGA,082954.00,1559.6942,S,4749.4199,W,12,12,1.0,914.2,M,0.0,M,0.0,0000*7b
$GPGSA,A,3,01,02,03,04,05,06,07,08,09,10,11,12,1.2,1.0,0.6*35
$GPGSV,3,1,12,01,45,045,50,02,45,045,50,03,45,045,50,04,45,045,50*7c
$GPGSV,3,2,12,05,45,045,50,06,45,045,50,07,45,045,50,08,45,045,50*77
$GPGSV,3,3,12,09,45,045,50,10,45,045,50,11,45,045,50,12,45,045,50*71
$GPRMC,082955.00,A,1559.6942,S,4749.4199,W,0.0,110.0,181016,0.0,E,A*0c
$GPVTG,110.0,T,0.0,M,0.0,N,0.0,K*4e
$GPGGA,082955.00,1559.6942,S,4749.4199,W,12,12,1.0,914.2,M,0.0,M,0.0,0000*7a
$GPGSA,A,3,01,02,03,04,05,06,07,08,09,10,11,12,1.2,1.0,0.6*35
$GPGSV,3,1,12,01,45,045,50,02,45,045,50,03,45,045,50,04,45,045,50*7c
$GPGSV,3,2,12,05,45,045,50,06,45,045,50,07,45,045,50,08,45,045,50*77
$GPGSV,3,3,12,09,45,045,50,10,45,045,50,11,45,045,50,12,45,045,50*71
$GPRMC,082956.00,A,1559.6943,S,4749.4193,W,0.9,109.7,181016,0.0,E,A*02
$GPVTG,109.7,T,0.0,M,0.9,N,1.7,K*4e
$GPGGA,082956.00,1559.6943,S,4749.4193,W,12,12,1.0,913.4,M,0.0,M,0.0,0000*73
$GPGSA,A,3,01,02,03,04,05,06,07,08,09,10,11,12,1.3,1.0,0.8*3a
$GPGSV,3,1,12,01,45,045,50,02,45,045,50,03,45,045,50,04,45,045,50*7c
$GPGSV,3,2,12,05,45,045,50,06,45,045,50,07,45,045,50,08,45,045,50*77
$GPGSV,3,3,12,09,45,045,50,10,45,045,50,11,45,045,50,12,45,045,50*71
$GPRMC,082957.00,A,1559.6944,S,4749.4189,W,0.8,109.7,181016,0.0,E,A*0e
$GPVTG,109.7,T,0.0,M,0.8,N,1.5,K*4d
$GPGGA,082957.00,1559.6944,S,4749.4189,W,12,12,1.0,914.4,M,0.0,M,0.0,0000*79
$GPGSA,A,3,01,02,03,04,05,06,07,08,09,10,11,12,1.3,1.0,0.8*3a
$GPGSV,3,1,12,01,45,045,50,02,45,045,50,03,45,045,50,04,45,045,50*7c
$GPGSV,3,2,12,05,45,045,50,06,45,045,50,07,45,045,50,08,45,045,50*77
$GPGSV,3,3,12,09,45,045,50,10,45,045,50,11,45,045,50,12,45,045,50*71
$GPRMC,082958.00,A,1559.6944,S,4749.4187,W,0.8,109.7,181016,0.0,E,A*0f
$GPVTG,109.7,T,0.0,M,0.8,N,1.5,K*4d
$GPGGA,082958.00,1559.6944,S,4749.4187,W,12,12,1.0,914.6,M,0.0,M,0.0,0000*7a
$GPGSA,A,3,01,02,03,04,05,06,07,08,09,10,11,12,1.3,1.0,0.8*3a
$GPGSV,3,1,12,01,45,045,50,02,45,045,50,03,45,045,50,04,45,045,50*7c
$GPGSV,3,2,12,05,45,045,50,06,45,045,50,07,45,045,50,08,45,045,50*77
$GPGSV,3,3,12,09,45,045,50,10,45,045,50,11,45,045,50,12,45,045,50*71
$GPRMC,082959.00,A,1559.6942,S,4749.4184,W,0.8,110.0,181016,0.0,E,A*04
$GPVTG,110.0,T,0.0,M,0.8,N,1.5,K*42
$GPGGA,082959.00,1559.6942,S,4749.4184,W,12,12,1.0,914.4,M,0.0,M,0.0,0000*7c
$GPGSA,A,3,01,02,03,04,05,06,07,08,09,10,11,12,1.2,1.0,0.6*35
$GPGSV,3,1,12,01,45,045,50,02,45,045,50,03,45,045,50,04,45,045,50*7c
$GPGSV,3,2,12,05,45,045,50,06,45,045,50,07,45,045,50,08,45,045,50*77
$GPGSV,3,3,12,09,45,045,50,10,45,045,50,11,45,045,50,12,45,045,50*71
$GPRMC,083000.00,A,1559.6938,S,4749.4181,W,1.9,110.0,181016,0.0,E,A*08
$GPVTG,110.0,T,0.0,M,1.9,N,3.5,K*40
$GPGGA,083000.00,1559.6938,S,4749.4181,W,12,12,1.0,914.5,M,0.0,M,0.0,0000*71
$GPGSA,A,3,01,02,03,04,05,06,07,08,09,10,11,12,1.2,1.0,0.6*35
$GPGSV,3,1,12,01,45,045,50,02,45,045,50,03,45,045,50,04,45,045,50*7c
$GPGSV,3,2,12,05,45,045,50,06,45,045,50,07,45,045,50,08,45,045,50*77
$GPGSV,3,3,12,09,45,045,50,10,45,045,50,11,45,045,50,12,45,045,50*71
$GPRMC,083001.00,A,1559.6934,S,4749.4177,W,2.1,110.0,181016,0.0,E,A*07
$GPVTG,110.0,T,0.0,M,2.1,N,3.9,K*47
$GPGGA,083001.00,1559.6934,S,4749.4177,W,12,12,1.0,914.3,M,0.0,M,0.0,0000*73
$GPGSA,A,3,01,02,03,04,05,06,07,08,09,10,11,12,1.2,1.0,0.6*35
$GPGSV,3,1,12,01,45,045,50,02,45,045,50,03,45,045,50,04,45,045,50*7c
$GPGSV,3,2,12,05,45,045,50,06,45,045,50,07,45,045,50,08,45,045,50*77
$GPGSV,3,3,12,09,45,045,50,10,45,045,50,11,45,045,50,12,45,045,50*71
$GPRMC,083002.00,A,1559.6929,S,4749.4173,W,2.1,35.2,181016,0.0,E,A*38
$GPVTG,35.2,T,0.0,M,2.1,N,3.9,K*73
$GPGGA,083002.00,1559.6929,S,4749.4173,W,12,12,1.0,914.2,M,0.0,M,0.0,0000*79
$GPGSA,A,3,01,02,03,04,05,06,07,08,09,10,11,12,1.2,1.0,0.6*35
$GPGSV,3,1,12,01,45,045,50,02,45,045,50,03,45,045,50,04,45,045,50*7c
$GPGSV,3,2,12,05,45,045,50,06,45,045,50,07,45,045,50,08,45,045,50*77
$GPGSV,3,3,12,09,45,045,50,10,45,045,50,11,45,045,50,12,45,045,50*71
$GPRMC,083003.00,A,1559.6923,S,4749.4169,W,2.7,32.7,181016,0.0,E,A*3c
$GPVTG,32.7,T,0.0,M,2.7,N,5.0,K*78
$GPGGA,083003.00,1559.6923,S,4749.4169,W,12,12,1.0,913.5,M,0.0,M,0.0,0000*79
$GPGSA,A,3,01,02,03,04,05,06,07,08,09,10,11,12,1.2,1.0,0.6*35
$GPGSV,3,1,12,01,45,045,50,02,45,045,50,03,45,045,50,04,45,045,50*7c
$GPGSV,3,2,12,05,45,045,50,06,45,045,50,07,45,045,50,08,45,045,50*77
$GPGSV,3,3,12,09,45,045,50,10,45,045,50,11,45,045,50,12,45,045,50*71
$GPRMC,083004.00,A,1559.6918,S,4749.4164,W,2.4,36.2,181016,0.0,E,A*3c
$GPVTG,36.2,T,0.0,M,2.4,N,4.5,K*7e
$GPGGA,083004.00,1559.6918,S,4749.4164,W,12,12,1.0,913.5,M,0.0,M,0.0,0000*7b
$GPGSA,A,3,01,02,03,04,05,06,07,08,09,10,11,12,1.3,1.0,0.8*3a
$GPGSV,3,1,12,01,45,045,50,02,45,045,50,03,45,045,50,04,45,045,50*7c
$GPGSV,3,2,12,05,45,045,50,06,45,045,50,07,45,045,50,08,45,045,50*77
$GPGSV,3,3,12,09,45,045,50,10,45,045,50,11,45,045,50,12,45,045,50*71
$GPRMC,083005.00,A,1559.6913,S,4749.4160,W,2.5,39.0,181016,0.0,E,A*3e
$GPVTG,39.0,T,0.0,M,2.5,N,4.7,K*70
$GPGGA,083005.00,1559.6913,S,4749.4160,W,12,12,1.0,912.8,M,0.0,M,0.0,0000*79
$GPGSA,A,3,01,02,03,04,05,06,07,08,09,10,11,12,1.3,1.0,0.8*3a
$GPGSV,3,1,12,01,45,045,50,02,45,045,50,03,45,045,50,04,45,045,50*7c
$GPGSV,3,2,12,05,45,045,50,06,45,045,50,07,45,045,50,08,45,045,50*77
$GPGSV,3,3,12,09,45,045,50,10,45,045,50,11,45,045,50,12,45,045,50*71
$GPRMC,083006.00,A,1559.6908,S,4749.4155,W,2.5,44.6,181016,0.0,E,A*3d
$GPVTG,44.6,T,0.0,M,2.5,N,4.7,K*7c
$GPGGA,083006.00,1559.6908,S,4749.4155,W,12,12,1.0,911.9,M,0.0,M,0.0,0000*74
$GPGSA,A,3,01,02,03,04,05,06,07,08,09,10,11,12,1.3,1.0,0.8*3a
$GPGSV,3,1,12,01,45,045,50,02,45,045,50,03,45,045,50,04,45,045,50*7c
$GPGSV,3,2,12,05,45,045,50,06,45,045,50,07,45,045,50,08,45,045,50*77
$GPGSV,3,3,12,09,45,045,50,10,45,045,50,11,45,045,50,12,45,045,50*71
$GPRMC,083007.00,A,1559.6903,S,4749.4149,W,2.8,43.2,181016,0.0,E,A*34
$GPVTG,43.2,T,0.0,M,2.8,N,5.3,K*77
$GPGGA,083007.00,1559.6903,S,4749.4149,W,12,12,1.0,911.9,M,0.0,M,0.0,0000*73
$GPGSA,A,3,01,02,03,04,05,06,07,08,09,10,11,12,1.6,1.0,1.2*34
$GPGSV,3,1,12,01,45,045,50,02,45,045,50,03,45,045,50,04,45,045,50*7c
$GPGSV,3,2,12,05,45,045,50,06,45,045,50,07,45,045,50,08,45,045,50*77
$GPGSV,3,3,12,09,45,045,50,10,45,045,50,11,45,045,50,12,45,045,50*71
$GPRMC,083008.00,A,1559.6899,S,4749.4137,W,2.9,54.8,181016,0.0,E,A*3d
$GPVTG,54.8,T,0.0,M,2.9,N,5.3,K*7a
$GPGGA,083008.00,1559.6899,S,4749.4137,W,12,12,1.0,910.6,M,0.0,M,0.0,0000*79
$GPGSA,A,3,01,02,03,04,05,06,07,08,09,10,11,12,1.6,1.0,1.2*34
$GPGSV,3,1,12,01,45,045,50,02,45,045,50,03,45,045,50,04,45,045,50*7c
$GPGSV,3,2,12,05,45,045,50,06,45,045,50,07,45,045,50,08,45,045,50*77
$GPGSV,3,3,12,09,45,045,50,10,45,045,50,11,45,045,50,12,45,045,50*71
$GPRMC,083009.00,A,1559.6895,S,4749.4122,W,4.6,60.8,181016,0.0,E,A*3a
$GPVTG,60.8,T,0.0,M,4.6,N,8.6,K*7c
$GPGGA,083009.00,1559.6895,S,4749.4122,W,12,12,1.0,910.6,M,0.0,M,0.0,0000*70
$GPGSA,A,3,01,02,03,04,05,06,07,08,09,10,11,12,1.6,1.0,1.2*34
$GPGSV,3,1,12,01,45,045,50,02,45,045,50,03,45,045,50,04,45,045,50*7c
$GPGSV,3,2,12,05,45,045,50,06,45,045,50,07,45,045,50,08,45,045,50*77
$GPGSV,3,3,12,09,45,045,50,10,45,045,50,11,45,045,50,12,45,045,50*71
$GPRMC,083010.00,A,1559.6893,S,4749.4111,W,4.6,67.9,181016,0.0,E,A*32
$GPVTG,67.9,T,0.0,M,4.6,N,8.6,K*7a
$GPGGA,083010.00,1559.6893,S,4749.4111,W,12,12,1.0,911.0,M,0.0,M,0.0,0000*79
$GPGSA,A,3,01,02,03,04,05,06,07,08,09,10,11,12,1.6,1.0,1.2*34
$GPGSV,3,1,12,01,45,045,50,02,45,045,50,03,45,045,50,04,45,045,50*7c
$GPGSV,3,2,12,05,45,045,50,06,45,045,50,07,45,045,50,08,45,045,50*77
$GPGSV,3,3,12,09,45,045,50,10,45,045,50,11,45,045,50,12,45,045,50*71
$GPRMC,083011.00,A,1559.6894,S,4749.4101,W,3.0,71.4,181016,0.0,E,A*3e
$GPVTG,71.4,T,0.0,M,3.0,N,5.6,K*7c
$GPGGA,083011.00,1559.6894,S,4749.4101,W,12,12,1.0,910.8,M,0.0,M,0.0,0000*77
$GPGSA,A,3,01,02,03,04,05,06,07,08,09,10,11,12,1.6,1.0,1.2*34
$GPGSV,3,1,12,01,45,045,50,02,45,045,50,03,45,045,50,04,45,045,50*7c
$GPGSV,3,2,12,05,45,045,50,06,45,045,50,07,45,045,50,08,45,045,50*77
$GPGSV,3,3,12,09,45,045,50,10,45,045,50,11,45,045,50,12,45,045,50*71
$GPRMC,083012.00,A,1559.6893,S,4749.4094,W,2.7,65.7,181016,0.0,E,A*37
$GPVTG,65.7,T,0.0,M,2.7,N,5.0,K*7a
$GPGGA,083012.00,1559.6893,S,4749.4094,W,12,12,1.0,910.8,M,0.0,M,0.0,0000*7e
$GPGSA,A,3,01,02,03,04,05,06,07,08,09,10,11,12,1.3,1.0,0.8*3a
$GPGSV,3,1,12,01,45,045,50,02,45,045,50,03,45,045,50,04,45,045,50*7c
$GPGSV,3,2,12,05,45,045,50,06,45,045,50,07,45,045,50,08,45,045,50*77
$GPGSV,3,3,12,09,45,045,50,10,45,045,50,11,45,045,50,12,45,045,50*71
$GPRMC,083013.00,A,1559.6887,S,4749.4092,W,2.7,40.8,181016,0.0,E,A*3d
$GPVTG,40.8,T,0.0,M,2.7,N,5.0,K*72
$GPGGA,083013.00,1559.6887,S,4749.4092,W,12,12,1.0,911.4,M,0.0,M,0.0,0000*71
$GPGSA,A,3,01,02,03,04,05,06,07,08,09,10,11,12,1.3,1.0,0.8*3a
$GPGSV,3,1,12,01,45,045,50,02,45,045,50,03,45,045,50,04,45,045,50*7c
$GPGSV,3,2,12,05,45,045,50,06,45,045,50,07,45,045,50,08,45,045,50*77
$GPGSV,3,3,12,09,45,045,50,10,45,045,50,11,45,045,50,12,45,045,50*71
$GPRMC,083014.00,A,1559.6880,S,4749.4090,W,2.7,23.6,181016,0.0,E,A*34
$GPVTG,23.6,T,0.0,M,2.7,N,5.1,K*78
$GPGGA,083014.00,1559.6880,S,4749.4090,W,12,12,1.0,911.6,M,0.0,M,0.0,0000*71
$GPGSA,A,3,01,02,03,04,05,06,07,08,09,10,11,12,1.3,1.0,0.8*3a
$GPGSV,3,1,12,01,45,045,50,02,45,045,50,03,45,045,50,04,45,045,50*7c
$GPGSV,3,2,12,05,45,045,50,06,45,045,50,07,45,045,50,08,45,045,50*77
$GPGSV,3,3,12,09,45,045,50,10,45,045,50,11,45,045,50,12,45,045,50*71
$GPRMC,083015.00,A,1559.6871,S,4749.4089,W,3.1,17.2,181016,0.0,E,A*37
$GPVTG,17.2,T,0.0,M,3.1,N,5.7,K*7a
$GPGGA,083015.00,1559.6871,S,4749.4089,W,12,12,1.0,911.8,M,0.0,M,0.0,0000*78
$GPGSA,A,3,01,02,03,04,05,06,07,08,09,10,11,12,1.3,1.0,0.8*3a
$GPGSV,3,1,12,01,45,045,50,02,45,045,50,03,45,045,50,04,45,045,50*7c
$GPGSV,3,2,12,05,45,045,50,06,45,045,50,07,45,045,50,08,45,045,50*77
$GPGSV,3,3,12,09,45,045,50,10,45,045,50,11,45,045,50,12,45,045,50*71
$GPRMC,083016.00,A,1559.6863,S,4749.4088,W,2.8,19.7,181016,0.0,E,A*35
$GPVTG,19.7,T,0.0,M,2.8,N,5.2,K*7c
$GPGGA,083016.00,1559.6863,S,4749.4088,W,12,12,1.0,910.8,M,0.0,M,0.0,0000*78
$GPGSA,A,3,01,02,03,04,05,06,07,08,09,10,11,12,1.3,1.0,0.8*3a
$GPGSV,3,1,12,01,45,045,50,02,45,045,50,03,45,045,50,04,45,045,50*7c
$GPGSV,3,2,12,05,45,045,50,06,45,045,50,07,45,045,50,08,45,045,50*77
$GPGSV,3,3,12,09,45,045,50,10,45,045,50,11,45,045,50,12,45,045,50*71
$GPRMC,083017.00,A,1559.6855,S,4749.4087,W,2.8,17.6,181016,0.0,E,A*31
$GPVTG,17.6,T,0.0,M,2.8,N,5.2,K*73
$GPGGA,083017.00,1559.6855,S,4749.4087,W,12,12,1.0,910.7,M,0.0,M,0.0,0000*7c
$GPGSA,A,3,01,02,03,04,05,06,07,08,09,10,11,12,1.2,1.0,0.6*35
$GPGSV,3,1,12,01,45,045,50,02,45,045,50,03,45,045,50,04,45,045,50*7c
$GPGSV,3,2,12,05,45,045,50,06,45,045,50,07,45,045,50,08,45,045,50*77
$GPGSV,3,3,12,09,45,045,50,10,45,045,50,11,45,045,50,12,45,045,50*71
$GPRMC,083018.00,A,1559.6849,S,4749.4086,W,2.2,17.6,181016,0.0,E,A*38
$GPVTG,17.6,T,0.0,M,2.2,N,4.0,K*7a
$GPGGA,083018.00,1559.6849,S,4749.4086,W,12,12,1.0,911.7,M,0.0,M,0.0,0000*7e
$GPGSA,A,3,01,02,03,04,05,06,07,08,09,10,11,12,1.2,1.0,0.6*35
$GPGSV,3,1,12,01,45,045,50,02,45,045,50,03,45,045,50,04,45,045,50*7c
$GPGSV,3,2,12,05,45,045,50,06,45,045,50,07,45,045,50,08,45,045,50*77
$GPGSV,3,3,12,09,45,045,50,10,45,045,50,11,45,045,50,12,45,045,50*71
$GPRMC,083019.00,A,1559.6842,S,4749.4085,W,2.7,18.6,181016,0.0,E,A*3b
$GPVTG,18.6,T,0.0,M,2.7,N,5.1,K*70
$GPGGA,083019.00,1559.6842,S,4749.4085,W,12,12,1.0,911.6,M,0.0,M,0.0,0000*76
$GPGSA,A,3,01,02,03,04,05,06,07,08,09,10,11,12,1.2,1.0,0.6*35
$GPGSV,3,1,12,01,45,045,50,02,45,045,50,03,45,045,50,04,45,045,50*7c
$GPGSV,3,2,12,05,45,045,50,06,45,045,50,07,45,045,50,08,45,045,50*77
$GPGSV,3,3,12,09,45,045,50,10,45,045,50,11,45,045,50,12,45,045,50*71
$GPRMC,083020.00,A,1559.6834,S,4749.4084,W,2.7,16.5,181016,0.0,E,A*3c
$GPVTG,16.5,T,0.0,M,2.7,N,5.1,K*7d
$GPGGA,083020.00,1559.6834,S,4749.4084,W,12,12,1.0,911.3,M,0.0,M,0.0,0000*79
$GPGSA,A,3,01,02,03,04,05,06,07,08,09,10,11,12,1.2,1.0,0.6*35
$GPGSV,3,1,12,01,45,045,50,02,45,045,50,03,45,045,50,04,45,045,50*7c
$GPGSV,3,2,12,05,45,045,50,06,45,045,50,07,45,045,50,08,45,045,50*77
$GPGSV,3,3,12,09,45,045,50,10,45,045,50,11,45,045,50,12,45,045,50*71
$GPRMC,083021.00,A,1559.6826,S,4749.4082,W,2.7,16.2,181016,0.0,E,A*3f
$GPVTG,16.2,T,0.0,M,2.7,N,5.1,K*7a
$GPGGA,083021.00,1559.6826,S,4749.4082,W,12,12,1.0,911.1,M,0.0,M,0.0,0000*7f
$GPGSA,A,3,01,02,03,04,05,06,07,08,09,10,11,12,1.2,1.0,0.6*35
$GPGSV,3,1,12,01,45,045,50,02,45,045,50,03,45,045,50,04,45,045,50*7c
$GPGSV,3,2,12,05,45,045,50,06,45,045,50,07,45,045,50,08,45,045,50*77
$GPGSV,3,3,12,09,45,045,50,10,45,045,50,11,45,045,50,12,45,045,50*71
$GPRMC,083022.00,A,1559.6819,S,4749.4081,W,2.8,7.7,181016,0.0,E,A*09
$GPVTG,7.7,T,0.0,M,2.8,N,5.2,K*43
$GPGGA,083022.00,1559.6819,S,4749.4081,W,12,12,1.0,911.0,M,0.0,M,0.0,0000*72
$GPGSA,A,3,01,02,03,04,05,06,07,08,09,10,11,12,1.2,1.0,0.6*35
$GPGSV,3,1,12,01,45,045,50,02,45,045,50,03,45,045,50,04,45,045,50*7c
$GPGSV,3,2,12,05,45,045,50,06,45,045,50,07,45,045,50,08,45,045,50*77
$GPGSV,3,3,12,09,45,045,50,10,45,045,50,11,45,045,50,12,45,045,50*71
$GPRMC,083023.00,A,1559.6811,S,4749.4080,W,2.1,8.4,181016,0.0,E,A*04
$GPVTG,8.4,T,0.0,M,2.1,N,3.9,K*4b
$GPGGA,083023.00,1559.6811,S,4749.4080,W,12,12,1.0,911.2,M,0.0,M,0.0,0000*78
$GPGSA,A,3,01,02,03,04,05,06,07,08,09,10,11,12,1.2,1.0,0.6*35
$GPGSV,3,1,12,01,45,045,50,02,45,045,50,03,45,045,50,04,45,045,50*7c
$GPGSV,3,2,12,05,45,045,50,06,45,045,50,07,45,045,50,08,45,045,50*77
$GPGSV,3,3,12,09,45,045,50,10,45,045,50,11,45,045,50,12,45,045,50*71
$GPRMC,083024.00,A,1559.6804,S,4749.4079,W,2.8,12.3,181016,0.0,E,A*34
$GPVTG,12.3,T,0.0,M,2.8,N,5.1,K*70
$GPGGA,083024.00,1559.6804,S,4749.4079,W,12,12,1.0,911.1,M,0.0,M,0.0,0000*7e
$GPGSA,A,3,01,02,03,04,05,06,07,08,09,10,11,12,1.2,1.0,0.6*35
$GPGSV,3,1,12,01,45,045,50,02,45,045,50,03,45,045,50,04,45,045,50*7c
$GPGSV,3,2,12,05,45,045,50,06,45,045,50,07,45,045,50,08,45,045,50*77
$GPGSV,3,3,12,09,45,045,50,10,45,045,50,11,45,045,50,12,45,045,50*71
$GPRMC,083025.00,A,1559.6795,S,4749.4078,W,2.8,3.5,181016,0.0,E,A*05
$GPVTG,3.5,T,0.0,M,2.8,N,5.1,K*46
$GPGGA,083025.00,1559.6795,S,4749.4078,W,12,12,1.0,911.1,M,0.0,M,0.0,0000*79
$GPGSA,A,3,01,02,03,04,05,06,07,08,09,10,11,12,1.2,1.0,0.6*35
$GPGSV,3,1,12,01,45,045,50,02,45,045,50,03,45,045,50,04,45,045,50*7c
$GPGSV,3,2,12,05,45,045,50,06,45,045,50,07,45,045,50,08,45,045,50*77
$GPGSV,3,3,12,09,45,045,50,10,45,045,50,11,45,045,50,12,45,045,50*71
$GPRMC,083026.00,A,1559.6786,S,4749.4077,W,3.0,23.2,181016,0.0,E,A*37
$GPVTG,23.2,T,0.0,M,3.0,N,5.6,K*7d
$GPGGA,083026.00,1559.6786,S,4749.4077,W,12,12,1.0,911.0,M,0.0,M,0.0,0000*76
$GPGSA,A,3,01,02,03,04,05,06,07,08,09,10,11,12,1.2,1.0,0.6*35
$GPGSV,3,1,12,01,45,045,50,02,45,045,50,03,45,045,50,04,45,045,50*7c
$GPGSV,3,2,12,05,45,045,50,06,45,045,50,07,45,045,50,08,45,045,50*77
$GPGSV,3,3,12,09,45,045,50,10,45,045,50,11,45,045,50,12,45,045,50*71
$GPRMC,083027.00,A,1559.6778,S,4749.4075,W,3.1,23.2,181016,0.0,E,A*34
$GPVTG,23.2,T,0.0,M,3.1,N,5.7,K*7d
$GPGGA,083027.00,1559.6778,S,4749.4075,W,12,12,1.0,911.1,M,0.0,M,0.0,0000*75
$GPGSA,A,3,01,02,03,04,05,06,07,08,09,10,11,12,1.2,1.0,0.6*35
$GPGSV,3,1,12,01,45,045,50,02,45,045,50,03,45,045,50,04,45,045,50*7c
$GPGSV,3,2,12,05,45,045,50,06,45,045,50,07,45,045,50,08,45,045,50*77
$GPGSV,3,3,12,09,45,045,50,10,45,045,50,11,45,045,50,12,45,045,50*71
$GPRMC,083028.00,A,1559.6771,S,4749.4074,W,2.1,23.2,181016,0.0,E,A*32
$GPVTG,23.2,T,0.0,M,2.1,N,3.9,K*74
$GPGGA,083028.00,1559.6771,S,4749.4074,W,12,12,1.0,911.2,M,0.0,M,0.0,0000*71
$GPGSA,A,3,01,02,03,04,05,06,07,08,09,10,11,12,1.2,1.0,0.6*35
$GPGSV,3,1,12,01,45,045,50,02,45,045,50,03,45,045,50,04,45,045,50*7c
$GPGSV,3,2,12,05,45,045,50,06,45,045,50,07,45,045,50,08,45,045,50*77
$GPGSV,3,3,12,09,45,045,50,10,45,045,50,11,45,045,50,12,45,045,50*71
$GPRMC,083029.00,A,1559.6764,S,4749.4072,W,3.0,12.3,181016,0.0,E,A*32
$GPVTG,12.3,T,0.0,M,3.0,N,5.5,K*7d
$GPGGA,083029.00,1559.6764,S,4749.4072,W,12,12,1.0,910.7,M,0.0,M,0.0,0000*76
$GPGSA,A,3,01,02,03,04,05,06,07,08,09,10,11,12,1.3,1.0,0.8*3a
$GPGSV,3,1,12,01,45,045,50,02,45,045,50,03,45,045,50,04,45,045,50*7c
$GPGSV,3,2,12,05,45,045,50,06,45,045,50,07,45,045,50,08,45,045,50*77
$GPGSV,3,3,12,09,45,045,50,10,45,045,50,11,45,045,50,12,45,045,50*71
$GPRMC,083030.00,A,1559.6756,S,4749.4070,W,2.5,13.0,181016,0.0,E,A*3f
$GPVTG,13.0,T,0.0,M,2.5,N,4.7,K*78
$GPGGA,083030.00,1559.6756,S,4749.4070,W,12,12,1.0,910.9,M,0.0,M,0.0,0000*73
$GPGSA,A,3,01,02,03,04,05,06,07,08,09,10,11,12,1.3,1.0,0.8*3a
$GPGSV,3,1,12,01,45,045,50,02,45,045,50,03,45,045,50,04,45,045,50*7c
$GPGSV,3,2,12,05,45,045,50,06,45,045,50,07,45,045,50,08,45,045,50*77
$GPGSV,3,3,12,09,45,045,50,10,45,045,50,11,45,045,50,12,45,045,50*71
$GPRMC,083031.00,A,1559.6750,S,4749.4067,W,2.6,13.0,181016,0.0,E,A*3d
$GPVTG,13.0,T,0.0,M,2.6,N,4.8,K*74
$GPGGA,083031.00,1559.6750,S,4749.4067,W,12,12,1.0,910.5,M,0.0,M,0.0,0000*7e
$GPGSA,A,3,01,02,03,04,05,06,07,08,09,10,11,12,1.3,1.0,0.8*3a
$GPGSV,3,1,12,01,45,045,50,02,45,045,50,03,45,045,50,04,45,045,50*7c
$GPGSV,3,2,12,05,45,045,50,06,45,045,50,07,45,045,50,08,45,045,50*77
$GPGSV,3,3,12,09,45,045,50,10,45,045,50,11,45,045,50,12,45,045,50*71
$GPRMC,083032.00,A,1559.6743,S,4749.4065,W,2.6,12.7,181016,0.0,E,A*38
$GPVTG,12.7,T,0.0,M,2.6,N,4.8,K*72
$GPGGA,083032.00,1559.6743,S,4749.4065,W,12,12,1.0,910.2,M,0.0,M,0.0,0000*7a
$GPGSA,A,3,01,02,03,04,05,06,07,08,09,10,11,12,1.3,1.0,0.8*3a
$GPGSV,3,1,12,01,45,045,50,02,45,045,50,03,45,045,50,04,45,045,50*7c
$GPGSV,3,2,12,05,45,045,50,06,45,045,50,07,45,045,50,08,45,045,50*77
$GPGSV,3,3,12,09,45,045,50,10,45,045,50,11,45,045,50,12,45,045,50*71
$GPRMC,083033.00,A,1559.6736,S,4749.4063,W,2.1,13.0,181016,0.0,E,A*3c
$GPVTG,13.0,T,0.0,M,2.1,N,3.9,K*75
$GPGGA,083033.00,1559.6736,S,4749.4063,W,12,12,1.0,909.6,M,0.0,M,0.0,0000*73
$GPGSA,A,3,01,02,03,04,05,06,07,08,09,10,11,12,1.2,1.0,0.6*35
$GPGSV,3,1,12,01,45,045,50,02,45,045,50,03,45,045,50,04,45,045,50*7c
$GPGSV,3,2,12,05,45,045,50,06,45,045,50,07,45,045,50,08,45,045,50*77
$GPGSV,3,3,12,09,45,045,50,10,45,045,50,11,45,045,50,12,45,045,50*71
$GPRMC,083034.00,A,1559.6729,S,4749.4062,W,2.7,1.4,181016,0.0,E,A*05
$GPVTG,1.4,T,0.0,M,2.7,N,5.0,K*4b
$GPGGA,083034.00,1559.6729,S,4749.4062,W,12,12,1.0,909.4,M,0.0,M,0.0,0000*79
$GPGSA,A,3,01,02,03,04,05,06,07,08,09,10,11,12,1.2,1.0,0.6*35
$GPGSV,3,1,12,01,45,045,50,02,45,045,50,03,45,045,50,04,45,045,50*7c
$GPGSV,3,2,12,05,45,045,50,06,45,045,50,07,45,045,50,08,45,045,50*77
$GPGSV,3,3,12,09,45,045,50,10,45,045,50,11,45,045,50,12,45,045,50*71
$GPRMC,083035.00,A,1559.6721,S,4749.4061,W,2.7,8.1,181016,0.0,E,A*03
$GPVTG,8.1,T,0.0,M,2.7,N,5.0,K*47
$GPGGA,083035.00,1559.6721,S,4749.4061,W,12,12,1.0,909.9,M,0.0,M,0.0,0000*7e
$GPGSA,A,3,01,02,03,04,05,06,07,08,09,10,11,12,1.2,1.0,0.6*35
$GPGSV,3,1,12,01,45,045,50,02,45,045,50,03,45,045,50,04,45,045,50*7c
$GPGSV,3,2,12,05,45,045,50,06,45,045,50,07,45,045,50,08,45,045,50*77
$GPGSV,3,3,12,09,45,045,50,10,45,045,50,11,45,045,50,12,45,045,50*71
$GPRMC,083036.00,A,1559.6714,S,4749.4059,W,2.7,10.5,181016,0.0,E,A*30
$GPVTG,10.5,T,0.0,M,2.7,N,5.0,K*7a
$GPGGA,083036.00,1559.6714,S,4749.4059,W,12,12,1.0,909.8,M,0.0,M,0.0,0000*71
$GPGSA,A,3,01,02,03,04,05,06,07,08,09,10,11,12,1.2,1.0,0.6*35
$GPGSV,3,1,12,01,45,045,50,02,45,045,50,03,45,045,50,04,45,045,50*7c
$GPGSV,3,2,12,05,45,045,50,06,45,045,50,07,45,045,50,08,45,045,50*77
$GPGSV,3,3,12,09,45,045,50,10,45,045,50,11,45,045,50,12,45,045,50*71
$GPRMC,083037.00,A,1559.6708,S,4749.4056,W,2.6,10.9,181016,0.0,E,A*3e
$GPVTG,10.9,T,0.0,M,2.6,N,4.8,K*7e
$GPGGA,083037.00,1559.6708,S,4749.4056,W,12,12,1.0,909.8,M,0.0,M,0.0,0000*72
$GPGSA,A,3,01,02,03,04,05,06,07,08,09,10,11,12,1.2,1.0,0.6*35
$GPGSV,3,1,12,01,45,045,50,02,45,045,50,03,45,045,50,04,45,045,50*7c
$GPGSV,3,2,12,05,45,045,50,06,45,045,50,07,45,045,50,08,45,045,50*77
$GPGSV,3,3,12,09,45,045,50,10,45,045,50,11,45,045,50,12,45,045,50*71
$GPRMC,083038.00,A,1559.6704,S,4749.4051,W,2.1,56.6,181016,0.0,E,A*30
$GPVTG,56.6,T,0.0,M,2.1,N,3.8,K*73
$GPGGA,083038.00,1559.6704,S,4749.4051,W,12,12,1.0,909.9,M,0.0,M,0.0,0000*77
$GPGSA,A,3,01,02,03,04,05,06,07,08,09,10,11,12,1.2,1.0,0.6*35
$GPGSV,3,1,12,01,45,045,50,02,45,045,50,03,45,045,50,04,45,045,50*7c
$GPGSV,3,2,12,05,45,045,50,06,45,045,50,07,45,045,50,08,45,045,50*77
$GPGSV,3,3,12,09,45,045,50,10,45,045,50,11,45,045,50,12,45,045,50*71
$GPRMC,083039.00,A,1559.6702,S,4749.4045,W,2.3,72.1,181016,0.0,E,A*31
$GPVTG,72.1,T,0.0,M,2.3,N,4.2,K*7d
$GPGGA,083039.00,1559.6702,S,4749.4045,W,12,12,1.0,910.0,M,0.0,M,0.0,0000*74
$GPGSA,A,3,01,02,03,04,05,06,07,08,09,10,11,12,1.2,1.0,0.6*35
$GPGSV,3,1,12,01,45,045,50,02,45,045,50,03,45,045,50,04,45,045,50*7c
$GPGSV,3,2,12,05,45,045,50,06,45,045,50,07,45,045,50,08,45,045,50*77
$GPGSV,3,3,12,09,45,045,50,10,45,045,50,11,45,045,50,12,45,045,50*71
$GPRMC,083040.00,A,1559.6701,S,4749.4040,W,2.1,73.5,181016,0.0,E,A*3e
$GPVTG,73.5,T,0.0,M,2.1,N,3.8,K*77
$GPGGA,083040.00,1559.6701,S,4749.4040,W,12,12,1.0,910.2,M,0.0,M,0.0,0000*7e
$GPGSA,A,3,01,02,03,04,05,06,07,08,09,10,11,12,1.2,1.0,0.6*35
$GPGSV,3,1,12,01,45,045,50,02,45,045,50,03,45,045,50,04,45,045,50*7c
$GPGSV,3,2,12,05,45,045,50,06,45,045,50,07,45,045,50,08,45,045,50*77
$GPGSV,3,3,12,09,45,045,50,10,45,045,50,11,45,045,50,12,45,045,50*71
$GPRMC,083041.00,A,1559.6702,S,4749.4035,W,2.0,74.2,181016,0.0,E,A*3f
$GPVTG,74.2,T,0.0,M,2.0,N,3.7,K*79
$GPGGA,083041.00,1559.6702,S,4749.4035,W,12,12,1.0,910.0,M,0.0,M,0.0,0000*7c
$GPGSA,A,3,01,02,03,04,05,06,07,08,09,10,11,12,1.2,1.0,0.6*35
$GPGSV,3,1,12,01,45,045,50,02,45,045,50,03,45,045,50,04,45,045,50*7c
$GPGSV,3,2,12,05,45,045,50,06,45,045,50,07,45,045,50,08,45,045,50*77
$GPGSV,3,3,12,09,45,045,50,10,45,045,50,11,45,045,50,12,45,045,50*71
$GPRMC,083042.00,A,1559.6705,S,4749.4030,W,1.9,74.2,181016,0.0,E,A*34
$GPVTG,74.2,T,0.0,M,1.9,N,3.6,K*72
$GPGGA,083042.00,1559.6705,S,4749.4030,W,12,12,1.0,910.0,M,0.0,M,0.0,0000*7d
$GPGSA,A,3,01,02,03,04,05,06,07,08,09,10,11,12,1.2,1.0,0.6*35
$GPGSV,3,1,12,01,45,045,50,02,45,045,50,03,45,045,50,04,45,045,50*7c
$GPGSV,3,2,12,05,45,045,50,06,45,045,50,07,45,045,50,08,45,045,50*77
$GPGSV,3,3,12,09,45,045,50,10,45,045,50,11,45,045,50,12,45,045,50*71
$GPRMC,083043.00,A,1559.6709,S,4749.4025,W,2.2,126.6,181016,0.0,E,A*07
$GPVTG,126.6,T,0.0,M,2.2,N,4.1,K*48
$GPGGA,083043.00,1559.6709,S,4749.4025,W,12,12,1.0,908.7,M,0.0,M,0.0,0000*7a
$GPGSA,A,3,01,02,03,04,05,06,07,08,09,10,11,12,1.2,1.0,0.6*35
$GPGSV,3,1,12,01,45,045,50,02,45,045,50,03,45,045,50,04,45,045,50*7c
$GPGSV,3,2,12,05,45,045,50,06,45,045,50,07,45,045,50,08,45,045,50*77
$GPGSV,3,3,12,09,45,045,50,10,45,045,50,11,45,045,50,12,45,045,50*71
$GPRMC,083044.00,A,1559.6715,S,4749.4020,W,2.2,126.9,181016,0.0,E,A*07
$GPVTG,126.9,T,0.0,M,2.2,N,4.1,K*47
$GPGGA,083044.00,1559.6715,S,4749.4020,W,12,12,1.0,908.6,M,0.0,M,0.0,0000*74
$GPGSA,A,3,01,02,03,04,05,06,07,08,09,10,11,12,1.2,1.0,0.6*35
$GPGSV,3,1,12,01,45,045,50,02,45,045,50,03,45,045,50,04,45,045,50*7c
$GPGSV,3,2,12,05,45,045,50,06,45,045,50,07,45,045,50,08,45,045,50*77
$GPGSV,3,3,12,09,45,045,50,10,45,045,50,11,45,045,50,12,45,045,50*71
$GPRMC,083045.00,A,1559.6720,S,4749.4015,W,2.5,126.9,181016,0.0,E,A*01
$GPVTG,126.9,T,0.0,M,2.5,N,4.6,K*47
$GPGGA,083045.00,1559.6720,S,4749.4015,W,12,12,1.0,908.6,M,0.0,M,0.0,0000*75
$GPGSA,A,3,01,02,03,04,05,06,07,08,09,10,11,12,1.2,1.0,0.6*35
$GPGSV,3,1,12,01,45,045,50,02,45,045,50,03,45,045,50,04,45,045,50*7c
$GPGSV,3,2,12,05,45,045,50,06,45,045,50,07,45,045,50,08,45,045,50*77
$GPGSV,3,3,12,09,45,045,50,10,45,045,50,11,45,045,50,12,45,045,50*71
$GPRMC,083046.00,A,1559.6726,S,4749.4010,W,2.5,126.9,181016,0.0,E,A*01
$GPVTG,126.9,T,0.0,M,2.5,N,4.6,K*47
$GPGGA,083046.00,1559.6726,S,4749.4010,W,12,12,1.0,908.8,M,0.0,M,0.0,0000*7b
$GPGSA,A,3,01,02,03,04,05,06,07,08,09,10,11,12,1.2,1.0,0.6*35
$GPGSV,3,1,12,01,45,045,50,02,45,045,50,03,45,045,50,04,45,045,50*7c
$GPGSV,3,2,12,05,45,045,50,06,45,045,50,07,45,045,50,08,45,045,50*77
$GPGSV,3,3,12,09,45,045,50,10,45,045,50,11,45,045,50,12,45,045,50*71
$GPRMC,083047.00,A,1559.6730,S,4749.4006,W,2.3,134.6,181016,0.0,E,A*0a
$GPVTG,134.6,T,0.0,M,2.3,N,4.2,K*49
$GPGGA,083047.00,1559.6730,S,4749.4006,W,12,12,1.0,908.9,M,0.0,M,0.0,0000*7b
$GPGSA,A,3,01,02,03,04,05,06,07,08,09,10,11,12,1.2,1.0,0.6*35
$GPGSV,3,1,12,01,45,045,50,02,45,045,50,03,45,045,50,04,45,045,50*7c
$GPGSV,3,2,12,05,45,045,50,06,45,045,50,07,45,045,50,08,45,045,50*77
$GPGSV,3,3,12,09,45,045,50,10,45,045,50,11,45,045,50,12,45,045,50*71
$GPRMC,083048.00,A,1559.6734,S,4749.4002,W,2.3,134.6,181016,0.0,E,A*05
$GPVTG,134.6,T,0.0,M,2.3,N,4.2,K*49
$GPGGA,083048.00,1559.6734,S,4749.4002,W,12,12,1.0,908.9,M,0.0,M,0.0,0000*74
$GPGSA,A,3,01,02,03,04,05,06,07,08,09,10,11,12,1.2,1.0,0.6*35
$GPGSV,3,1,12,01,45,045,50,02,45,045,50,03,45,045,50,04,45,045,50*7c
$GPGSV,3,2,12,05,45,045,50,06,45,045,50,07,45,045,50,08,45,045,50*77
$GPGSV,3,3,12,09,45,045,50,10,45,045,50,11,45,045,50,12,45,045,50*71
$GPRMC,083049.00,A,1559.6739,S,4749.3998,W,2.3,136.1,181016,0.0,E,A*01
$GPVTG,136.1,T,0.0,M,2.3,N,4.2,K*4c
$GPGGA,083049.00,1559.6739,S,4749.3998,W,12,12,1.0,909.4,M,0.0,M,0.0,0000*79
$GPGSA,A,3,01,02,03,04,05,06,07,08,09,10,11,12,1.2,1.0,0.6*35
$GPGSV,3,1,12,01,45,045,50,02,45,045,50,03,45,045,50,04,45,045,50*7c
$GPGSV,3,2,12,05,45,045,50,06,45,045,50,07,45,045,50,08,45,045,50*77
$GPGSV,3,3,12,09,45,045,50,10,45,045,50,11,45,045,50,12,45,045,50*71
$GPRMC,083050.00,A,1559.6744,S,4749.3994,W,2.3,135.4,181016,0.0,E,A*09
$GPVTG,135.4,T,0.0,M,2.3,N,4.2,K*4a
$GPGGA,083050.00,1559.6744,S,4749.3994,W,12,12,1.0,909.5,M,0.0,M,0.0,0000*76
$GPGSA,A,3,01,02,03,04,05,06,07,08,09,10,11,12,1.2,1.0,0.6*35
$GPGSV,3,1,12,01,45,045,50,02,45,045,50,03,45,045,50,04,45,045,50*7c
$GPGSV,3,2,12,05,45,045,50,06,45,045,50,07,45,045,50,08,45,045,50*77
$GPGSV,3,3,12,09,45,045,50,10,45,045,50,11,45,045,50,12,45,045,50*71
$GPRMC,083051.00,A,1559.6748,S,4749.3989,W,2.0,135.7,181016,0.0,E,A*08
$GPVTG,135.7,T,0.0,M,2.0,N,3.7,K*48
$GPGGA,083051.00,1559.6748,S,4749.3989,W,12,12,1.0,909.8,M,0.0,M,0.0,0000*7a
$GPGSA,A,3,01,02,03,04,05,06,07,08,09,10,11,12,1.2,1.0,0.6*35
$GPGSV,3,1,12,01,45,045,50,02,45,045,50,03,45,045,50,04,45,045,50*7c
$GPGSV,3,2,12,05,45,045,50,06,45,045,50,07,45,045,50,08,45,045,50*77
$GPGSV,3,3,12,09,45,045,50,10,45,045,50,11,45,045,50,12,45,045,50*71
$GPRMC,083052.00,A,1559.6752,S,4749.3984,W,2.9,122.0,181016,0.0,E,A*05
$GPVTG,122.0,T,0.0,M,2.9,N,5.3,K*42
$GPGGA,083052.00,1559.6752,S,4749.3984,W,12,12,1.0,910.3,M,0.0,M,0.0,0000*7c
$GPGSA,A,3,01,02,03,04,05,06,07,08,09,10,11,12,1.2,1.0,0.6*35
$GPGSV,3,1,12,01,45,045,50,02,45,045,50,03,45,045,50,04,45,045,50*7c
$GPGSV,3,2,12,05,45,045,50,06,45,045,50,07,45,045,50,08,45,045,50*77
$GPGSV,3,3,12,09,45,045,50,10,45,045,50,11,45,045,50,12,45,045,50*71
$GPRMC,083053.00,A,1559.6757,S,4749.3977,W,2.7,122.0,181016,0.0,E,A*03
$GPVTG,122.0,T,0.0,M,2.7,N,5.1,K*4e
$GPGGA,083053.00,1559.6757,S,4749.3977,W,12,12,1.0,909.8,M,0.0,M,0.0,0000*77
$GPGSA,A,3,01,02,03,04,05,06,07,08,09,10,11,12,1.2,1.0,0.6*35
$GPGSV,3,1,12,01,45,045,50,02,45,045,50,03,45,045,50,04,45,045,50*7c
$GPGSV,3,2,12,05,45,045,50,06,45,045,50,07,45,045,50,08,45,045,50*77
$GPGSV,3,3,12,09,45,045,50,10,45,045,50,11,45,045,50,12,45,045,50*71
$GPRMC,083054.00,A,1559.6761,S,4749.3971,W,2.7,133.9,181016,0.0,E,A*0e
$GPVTG,133.9,T,0.0,M,2.7,N,5.1,K*47
$GPGGA,083054.00,1559.6761,S,4749.3971,W,12,12,1.0,909.5,M,0.0,M,0.0,0000*7e
$GPGSA,A,3,01,02,03,04,05,06,07,08,09,10,11,12,1.2,1.0,0.6*35
$GPGSV,3,1,12,01,45,045,50,02,45,045,50,03,45,045,50,04,45,045,50*7c
$GPGSV,3,2,12,05,45,045,50,06,45,045,50,07,45,045,50,08,45,045,50*77
$GPGSV,3,3,12,09,45,045,50,10,45,045,50,11,45,045,50,12,45,045,50*71
$GPRMC,083055.00,A,1559.6766,S,4749.3965,W,2.6,133.6,181016,0.0,E,A*03
$GPVTG,133.6,T,0.0,M,2.6,N,4.9,K*40
$GPGGA,083055.00,1559.6766,S,4749.3965,W,12,12,1.0,909.6,M,0.0,M,0.0,0000*7e
$GPGSA,A,3,01,02,03,04,05,06,07,08,09,10,11,12,1.2,1.0,0.6*35
$GPGSV,3,1,12,01,45,045,50,02,45,045,50,03,45,045,50,04,45,045,50*7c
$GPGSV,3,2,12,05,45,045,50,06,45,045,50,07,45,045,50,08,45,045,50*77
$GPGSV,3,3,12,09,45,045,50,10,45,045,50,11,45,045,50,12,45,045,50*71
$GPRMC,083056.00,A,1559.6770,S,4749.3959,W,2.0,133.6,181016,0.0,E,A*0e
$GPVTG,133.6,T,0.0,M,2.0,N,3.8,K*40
$GPGGA,083056.00,1559.6770,S,4749.3959,W,12,12,1.0,909.5,M,0.0,M,0.0,0000*76
$GPGSA,A,3,01,02,03,04,05,06,07,08,09,10,11,12,1.2,1.0,0.6*35
$GPGSV,3,1,12,01,45,045,50,02,45,045,50,03,45,045,50,04,45,045,50*7c
$GPGSV,3,2,12,05,45,045,50,06,45,045,50,07,45,045,50,08,45,045,50*77
$GPGSV,3,3,12,09,45,045,50,10,45,045,50,11,45,045,50,12,45,045,50*71
$GPRMC,083057.00,A,1559.6774,S,4749.3954,W,2.5,137.5,181016,0.0,E,A*04
$GPVTG,137.5,T,0.0,M,2.5,N,4.7,K*4a
$GPGGA,083057.00,1559.6774,S,4749.3954,W,12,12,1.0,909.6,M,0.0,M,0.0,0000*7d
$GPGSA,A,3,01,02,03,04,05,06,07,08,09,10,11,12,1.2,1.0,0.6*35
$GPGSV,3,1,12,01,45,045,50,02,45,045,50,03,45,045,50,04,45,045,50*7c
$GPGSV,3,2,12,05,45,045,50,06,45,045,50,07,45,045,50,08,45,045,50*77
$GPGSV,3,3,12,09,45,045,50,10,45,045,50,11,45,045,50,12,45,045,50*71
$GPRMC,083058.00,A,1559.6779,S,4749.3948,W,2.5,137.5,181016,0.0,E,A*0b
$GPVTG,137.5,T,0.0,M,2.5,N,4.6,K*4b
$GPGGA,083058.00,1559.6779,S,4749.3948,W,12,12,1.0,909.3,M,0.0,M,0.0,0000*77
$GPGSA,A,3,01,02,03,04,05,06,07,08,09,10,11,12,1.2,1.0,0.6*35
$GPGSV,3,1,12,01,45,045,50,02,45,045,50,03,45,045,50,04,45,045,50*7c
$GPGSV,3,2,12,05,45,045,50,06,45,045,50,07,45,045,50,08,45,045,50*77
$GPGSV,3,3,12,09,45,045,50,10,45,045,50,11,45,045,50,12,45,045,50*71
$GPRMC,083059.00,A,1559.6784,S,4749.3943,W,2.5,130.1,181016,0.0,E,A*00
$GPVTG,130.1,T,0.0,M,2.5,N,4.6,K*48
$GPGGA,083059.00,1559.6784,S,4749.3943,W,12,12,1.0,909.4,M,0.0,M,0.0,0000*78
$GPGSA,A,3,01,02,03,04,05,06,07,08,09,10,11,12,1.2,1.0,0.6*35
$GPGSV,3,1,12,01,45,045,50,02,45,045,50,03,45,045,50,04,45,045,50*7c
$GPGSV,3,2,12,05,45,045,50,06,45,045,50,07,45,045,50,08,45,045,50*77
$GPGSV,3,3,12,09,45,045,50,10,45,045,50,11,45,045,50,12,45,045,50*71
$GPRMC,083100.00,A,1559.6789,S,4749.3938,W,2.5,130.8,181016,0.0,E,A*05
$GPVTG,130.8,T,0.0,M,2.5,N,4.6,K*41
$GPGGA,083100.00,1559.6789,S,4749.3938,W,12,12,1.0,909.0,M,0.0,M,0.0,0000*70
$GPGSA,A,3,01,02,03,04,05,06,07,08,09,10,11,12,1.2,1.0,0.6*35
$GPGSV,3,1,12,01,45,045,50,02,45,045,50,03,45,045,50,04,45,045,50*7c
$GPGSV,3,2,12,05,45,045,50,06,45,045,50,07,45,045,50,08,45,045,50*77
$GPGSV,3,3,12,09,45,045,50,10,45,045,50,11,45,045,50,12,45,045,50*71
$GPRMC,083101.00,A,1559.6793,S,4749.3933,W,2.5,130.4,181016,0.0,E,A*08
$GPVTG,130.4,T,0.0,M,2.5,N,4.6,K*4d
$GPGGA,083101.00,1559.6793,S,4749.3933,W,12,12,1.0,908.8,M,0.0,M,0.0,0000*78
$GPGSA,A,3,01,02,03,04,05,06,07,08,09,10,11,12,1.2,1.0,0.6*35
$GPGSV,3,1,12,01,45,045,50,02,45,045,50,03,45,045,50,04,45,045,50*7c
$GPGSV,3,2,12,05,45,045,50,06,45,045,50,07,45,045,50,08,45,045,50*77
$GPGSV,3,3,12,09,45,045,50,10,45,045,50,11,45,045,50,12,45,045,50*71
$GPRMC,083102.00,A,1559.6798,S,4749.3928,W,2.5,130.4,181016,0.0,E,A*0a
$GPVTG,130.4,T,0.0,M,2.5,N,4.6,K*4d
$GPGGA,083102.00,1559.6798,S,4749.3928,W,12,12,1.0,908.9,M,0.0,M,0.0,0000*7b
$GPGSA,A,3,01,02,03,04,05,06,07,08,09,10,11,12,1.2,1.0,0.6*35
$GPGSV,3,1,12,01,45,045,50,02,45,045,50,03,45,045,50,04,45,045,50*7c
$GPGSV,3,2,12,05,45,045,50,06,45,045,50,07,45,045,50,08,45,045,50*77
$GPGSV,3,3,12,09,45,045,50,10,45,045,50,11,45,045,50,12,45,045,50*71
$GPRMC,083103.00,A,1559.6804,S,4749.3922,W,2.6,136.4,181016,0.0,E,A*0e
$GPVTG,136.4,T,0.0,M,2.6,N,4.9,K*47
$GPGGA,083103.00,1559.6804,S,4749.3922,W,12,12,1.0,908.9,M,0.0,M,0.0,0000*7a
$GPGSA,A,3,01,02,03,04,05,06,07,08,09,10,11,12,1.2,1.0,0.6*35
$GPGSV,3,1,12,01,45,045,50,02,45,045,50,03,45,045,50,04,45,045,50*7c
$GPGSV,3,2,12,05,45,045,50,06,45,045,50,07,45,045,50,08,45,045,50*77
$GPGSV,3,3,12,09,45,045,50,10,45,045,50,11,45,045,50,12,45,045,50*71
$GPRMC,083104.00,A,1559.6809,S,4749.3917,W,2.6,131.5,181016,0.0,E,A*04
$GPVTG,131.5,T,0.0,M,2.6,N,4.9,K*41
$GPGGA,083104.00,1559.6809,S,4749.3917,W,12,12,1.0,908.9,M,0.0,M,0.0,0000*76
$GPGSA,A,3,01,02,03,04,05,06,07,08,09,10,11,12,1.2,1.0,0.6*35
$GPGSV,3,1,12,01,45,045,50,02,45,045,50,03,45,045,50,04,45,045,50*7c
$GPGSV,3,2,12,05,45,045,50,06,45,045,50,07,45,045,50,08,45,045,50*77
$GPGSV,3,3,12,09,45,045,50,10,45,045,50,11,45,045,50,12,45,045,50*71
$GPRMC,083105.00,A,1559.6814,S,4749.3911,W,2.6,131.5,181016,0.0,E,A*0f
$GPVTG,131.5,T,0.0,M,2.6,N,4.8,K*40
$GPGGA,083105.00,1559.6814,S,4749.3911,W,12,12,1.0,908.9,M,0.0,M,0.0,0000*7d
$GPGSA,A,3,01,02,03,04,05,06,07,08,09,10,11,12,1.2,1.0,0.6*35
$GPGSV,3,1,12,01,45,045,50,02,45,045,50,03,45,045,50,04,45,045,50*7c
$GPGSV,3,2,12,05,45,045,50,06,45,045,50,07,45,045,50,08,45,045,50*77
$GPGSV,3,3,12,09,45,045,50,10,45,045,50,11,45,045,50,12,45,045,50*71
$GPRMC,083106.00,A,1559.6819,S,4749.3906,W,2.6,131.5,181016,0.0,E,A*07
$GPVTG,131.5,T,0.0,M,2.6,N,4.8,K*40
$GPGGA,083106.00,1559.6819,S,4749.3906,W,12,12,1.0,909.0,M,0.0,M,0.0,0000*7d
$GPGSA,A,3,01,02,03,04,05,06,07,08,09,10,11,12,1.2,1.0,0.6*35
$GPGSV,3,1,12,01,45,045,50,02,45,045,50,03,45,045,50,04,45,045,50*7c
$GPGSV,3,2,12,05,45,045,50,06,45,045,50,07,45,045,50,08,45,045,50*77
$GPGSV,3,3,12,09,45,045,50,10,45,045,50,11,45,045,50,12,45,045,50*71
$GPRMC,083107.00,A,1559.6823,S,4749.3901,W,2.6,128.3,181016,0.0,E,A*06
$GPVTG,128.3,T,0.0,M,2.6,N,4.8,K*4e
$GPGGA,083107.00,1559.6823,S,4749.3901,W,12,12,1.0,908.9,M,0.0,M,0.0,0000*7a
$GPGSA,A,3,01,02,03,04,05,06,07,08,09,10,11,12,1.2,1.0,0.6*35
$GPGSV,3,1,12,01,45,045,50,02,45,045,50,03,45,045,50,04,45,045,50*7c
$GPGSV,3,2,12,05,45,045,50,06,45,045,50,07,45,045,50,08,45,045,50*77
$GPGSV,3,3,12,09,45,045,50,10,45,045,50,11,45,045,50,12,45,045,50*71
$GPRMC,083108.00,A,1559.6828,S,4749.3895,W,2.5,126.9,181016,0.0,E,A*09
$GPVTG,126.9,T,0.0,M,2.5,N,4.7,K*46
$GPGGA,083108.00,1559.6828,S,4749.3895,W,12,12,1.0,908.8,M,0.0,M,0.0,0000*73
$GPGSA,A,3,01,02,03,04,05,06,07,08,09,10,11,12,1.2,1.0,0.6*35
$GPGSV,3,1,12,01,45,045,50,02,45,045,50,03,45,045,50,04,45,045,50*7c
$GPGSV,3,2,12,05,45,045,50,06,45,045,50,07,45,045,50,08,45,045,50*77
$GPGSV,3,3,12,09,45,045,50,10,45,045,50,11,45,045,50,12,45,045,50*71
$GPRMC,083109.00,A,1559.6833,S,4749.3890,W,2.5,142.4,181016,0.0,E,A*08
$GPVTG,142.4,T,0.0,M,2.5,N,4.7,K*49
$GPGGA,083109.00,1559.6833,S,4749.3890,W,12,12,1.0,908.4,M,0.0,M,0.0,0000*71
$GPGSA,A,3,01,02,03,04,05,06,07,08,09,10,11,12,1.2,1.0,0.6*35
$GPGSV,3,1,12,01,45,045,50,02,45,045,50,03,45,045,50,04,45,045,50*7c
$GPGSV,3,2,12,05,45,045,50,06,45,045,50,07,45,045,50,08,45,045,50*77
$GPGSV,3,3,12,09,45,045,50,10,45,045,50,11,45,045,50,12,45,045,50*71
$GPRMC,083110.00,A,1559.6838,S,4749.3885,W,2.4,142.4,181016,0.0,E,A*0e
$GPVTG,142.4,T,0.0,M,2.4,N,4.5,K*4a
$GPGGA,083110.00,1559.6838,S,4749.3885,W,12,12,1.0,908.6,M,0.0,M,0.0,0000*74
$GPGSA,A,3,01,02,03,04,05,06,07,08,09,10,11,12,1.2,1.0,0.6*35
$GPGSV,3,1,12,01,45,045,50,02,45,045,50,03,45,045,50,04,45,045,50*7c
$GPGSV,3,2,12,05,45,045,50,06,45,045,50,07,45,045,50,08,45,045,50*77
$GPGSV,3,3,12,09,45,045,50,10,45,045,50,11,45,045,50,12,45,045,50*71
$GPRMC,083111.00,A,1559.6844,S,4749.3880,W,2.6,144.8,181016,0.0,E,A*09
$GPVTG,144.8,T,0.0,M,2.6,N,4.9,K*4e
$GPGGA,083111.00,1559.6844,S,4749.3880,W,12,12,1.0,908.6,M,0.0,M,0.0,0000*7b
$GPGSA,A,3,01,02,03,04,05,06,07,08,09,10,11,12,1.2,1.0,0.6*35
$GPGSV,3,1,12,01,45,045,50,02,45,045,50,03,45,045,50,04,45,045,50*7c
$GPGSV,3,2,12,05,45,045,50,06,45,045,50,07,45,045,50,08,45,045,50*77
$GPGSV,3,3,12,09,45,045,50,10,45,045,50,11,45,045,50,12,45,045,50*71
$GPRMC,083112.00,A,1559.6851,S,4749.3876,W,2.6,144.8,181016,0.0,E,A*07
$GPVTG,144.8,T,0.0,M,2.6,N,4.8,K*4f
$GPGGA,083112.00,1559.6851,S,4749.3876,W,12,12,1.0,908.7,M,0.0,M,0.0,0000*74
$GPGSA,A,3,01,02,03,04,05,06,07,08,09,10,11,12,1.2,1.0,0.6*35
$GPGSV,3,1,12,01,45,045,50,02,45,045,50,03,45,045,50,04,45,045,50*7c
$GPGSV,3,2,12,05,45,045,50,06,45,045,50,07,45,045,50,08,45,045,50*77
$GPGSV,3,3,12,09,45,045,50,10,45,045,50,11,45,045,50,12,45,045,50*71
$GPRMC,083113.00,A,1559.6857,S,4749.3872,W,2.6,149.4,181016,0.0,E,A*05
$GPVTG,149.4,T,0.0,M,2.6,N,4.8,K*4e
$GPGGA,083113.00,1559.6857,S,4749.3872,W,12,12,1.0,908.7,M,0.0,M,0.0,0000*77
$GPGSA,A,3,01,02,03,04,05,06,07,08,09,10,11,12,1.2,1.0,0.6*35
$GPGSV,3,1,12,01,45,045,50,02,45,045,50,03,45,045,50,04,45,045,50*7c
$GPGSV,3,2,12,05,45,045,50,06,45,045,50,07,45,045,50,08,45,045,50*77
$GPGSV,3,3,12,09,45,045,50,10,45,045,50,11,45,045,50,12,45,045,50*71
$GPRMC,083114.00,A,1559.6862,S,4749.3869,W,2.1,148.4,181016,0.0,E,A*08
$GPVTG,148.4,T,0.0,M,2.1,N,3.9,K*4e
$GPGGA,083114.00,1559.6862,S,4749.3869,W,12,12,1.0,908.9,M,0.0,M,0.0,0000*72
$GPGSA,A,3,01,02,03,04,05,06,07,08,09,10,11,12,1.2,1.0,0.6*35
$GPGSV,3,1,12,01,45,045,50,02,45,045,50,03,45,045,50,04,45,045,50*7c
$GPGSV,3,2,12,05,45,045,50,06,45,045,50,07,45,045,50,08,45,045,50*77
$GPGSV,3,3,12,09,45,045,50,10,45,045,50,11,45,045,50,12,45,045,50*71
$GPRMC,083115.00,A,1559.6868,S,4749.3864,W,2.8,138.2,181016,0.0,E,A*06
$GPVTG,138.2,T,0.0,M,2.8,N,5.3,K*4a
$GPGGA,083115.00,1559.6868,S,4749.3864,W,12,12,1.0,909.0,M,0.0,M,0.0,0000*7c
$GPGSA,A,3,01,02,03,04,05,06,07,08,09,10,11,12,1.2,1.0,0.6*35
$GPGSV,3,1,12,01,45,045,50,02,45,045,50,03,45,045,50,04,45,045,50*7c
$GPGSV,3,2,12,05,45,045,50,06,45,045,50,07,45,045,50,08,45,045,50*77
$GPGSV,3,3,12,09,45,045,50,10,45,045,50,11,45,045,50,12,45,045,50*71
$GPRMC,083116.00,A,1559.6875,S,4749.3859,W,2.8,138.9,181016,0.0,E,A*0c
$GPVTG,138.9,T,0.0,M,2.8,N,5.3,K*41
$GPGGA,083116.00,1559.6875,S,4749.3859,W,12,12,1.0,909.0,M,0.0,M,0.0,0000*7d
$GPGSA,A,3,01,02,03,04,05,06,07,08,09,10,11,12,1.2,1.0,0.6*35
$GPGSV,3,1,12,01,45,045,50,02,45,045,50,03,45,045,50,04,45,045,50*7c
$GPGSV,3,2,12,05,45,045,50,06,45,045,50,07,45,045,50,08,45,045,50*77
$GPGSV,3,3,12,09,45,045,50,10,45,045,50,11,45,045,50,12,45,045,50*71
$GPRMC,083117.00,A,1559.6881,S,4749.3855,W,2.8,153.3,181016,0.0,E,A*0d
$GPVTG,153.3,T,0.0,M,2.8,N,5.3,K*46
$GPGGA,083117.00,1559.6881,S,4749.3855,W,12,12,1.0,909.1,M,0.0,M,0.0,0000*7a
$GPGSA,A,3,01,02,03,04,05,06,07,08,09,10,11,12,1.2,1.0,0.6*35
$GPGSV,3,1,12,01,45,045,50,02,45,045,50,03,45,045,50,04,45,045,50*7c
$GPGSV,3,2,12,05,45,045,50,06,45,045,50,07,45,045,50,08,45,045,50*77
$GPGSV,3,3,12,09,45,045,50,10,45,045,50,11,45,045,50,12,45,045,50*71
$GPRMC,083118.00,A,1559.6887,S,4749.3851,W,2.9,156.4,181016,0.0,E,A*03
$GPVTG,156.4,T,0.0,M,2.9,N,5.4,K*42
$GPGGA,083118.00,1559.6887,S,4749.3851,W,12,12,1.0,909.2,M,0.0,M,0.0,0000*74
$GPGSA,A,3,01,02,03,04,05,06,07,08,09,10,11,12,1.2,1.0,0.6*35
$GPGSV,3,1,12,01,45,045,50,02,45,045,50,03,45,045,50,04,45,045,50*7c
$GPGSV,3,2,12,05,45,045,50,06,45,045,50,07,45,045,50,08,45,045,50*77
$GPGSV,3,3,12,09,45,045,50,10,45,045,50,11,45,045,50,12,45,045,50*71
$GPRMC,083119.00,A,1559.6894,S,4749.3848,W,2.1,157.1,181016,0.0,E,A*04
$GPVTG,157.1,T,0.0,M,2.1,N,3.9,K*45
$GPGGA,083119.00,1559.6894,S,4749.3848,W,12,12,1.0,909.0,M,0.0,M,0.0,0000*7d
$GPGSA,A,3,01,02,03,04,05,06,07,08,09,10,11,12,1.2,1.0,0.6*35
$GPGSV,3,1,12,01,45,045,50,02,45,045,50,03,45,045,50,04,45,045,50*7c
$GPGSV,3,2,12,05,45,045,50,06,45,045,50,07,45,045,50,08,45,045,50*77
$GPGSV,3,3,12,09,45,045,50,10,45,045,50,11,45,045,50,12,45,045,50*71
$GPRMC,083120.00,A,1559.6900,S,4749.3845,W,2.8,153.6,181016,0.0,E,A*05
$GPVTG,153.6,T,0.0,M,2.8,N,5.3,K*43
$GPGGA,083120.00,1559.6900,S,4749.3845,W,12,12,1.0,909.0,M,0.0,M,0.0,0000*76
$GPGSA,A,3,01,02,03,04,05,06,07,08,09,10,11,12,1.2,1.0,0.6*35
$GPGSV,3,1,12,01,45,045,50,02,45,045,50,03,45,045,50,04,45,045,50*7c
$GPGSV,3,2,12,05,45,045,50,06,45,045,50,07,45,045,50,08,45,045,50*77
$GPGSV,3,3,12,09,45,045,50,10,45,045,50,11,45,045,50,12,45,045,50*71
$GPRMC,083121.00,A,1559.6908,S,4749.3841,W,2.8,154.0,181016,0.0,E,A*09
$GPVTG,154.0,T,0.0,M,2.8,N,5.2,K*43
$GPGGA,083121.00,1559.6908,S,4749.3841,W,12,12,1.0,908.9,M,0.0,M,0.0,0000*73
$GPGSA,A,3,01,02,03,04,05,06,07,08,09,10,11,12,1.2,1.0,0.6*35
$GPGSV,3,1,12,01,45,045,50,02,45,045,50,03,45,045,50,04,45,045,50*7c
$GPGSV,3,2,12,05,45,045,50,06,45,045,50,07,45,045,50,08,45,045,50*77
$GPGSV,3,3,12,09,45,045,50,10,45,045,50,11,45,045,50,12,45,045,50*71
$GPRMC,083122.00,A,1559.6914,S,4749.3837,W,2.8,151.5,181016,0.0,E,A*06
$GPVTG,151.5,T,0.0,M,2.8,N,5.2,K*43
$GPGGA,083122.00,1559.6914,S,4749.3837,W,12,12,1.0,908.9,M,0.0,M,0.0,0000*7c
$GPGSA,A,3,01,02,03,04,05,06,07,08,09,10,11,12,1.2,1.0,0.6*35
$GPGSV,3,1,12,01,45,045,50,02,45,045,50,03,45,045,50,04,45,045,50*7c
$GPGSV,3,2,12,05,45,045,50,06,45,045,50,07,45,045,50,08,45,045,50*77
$GPGSV,3,3,12,09,45,045,50,10,45,045,50,11,45,045,50,12,45,045,50*71
$GPRMC,083123.00,A,1559.6921,S,4749.3833,W,2.7,152.2,181016,0.0,E,A*0e
$GPVTG,152.2,T,0.0,M,2.7,N,5.0,K*4a
$GPGGA,083123.00,1559.6921,S,4749.3833,W,12,12,1.0,909.1,M,0.0,M,0.0,0000*76
$GPGSA,A,3,01,02,03,04,05,06,07,08,09,10,11,12,1.2,1.0,0.6*35
$GPGSV,3,1,12,01,45,045,50,02,45,045,50,03,45,045,50,04,45,045,50*7c
$GPGSV,3,2,12,05,45,045,50,06,45,045,50,07,45,045,50,08,45,045,50*77
$GPGSV,3,3,12,09,45,045,50,10,45,045,50,11,45,045,50,12,45,045,50*71
$GPRMC,083124.00,A,1559.6927,S,4749.3829,W,2.1,148.7,181016,0.0,E,A*0c
$GPVTG,148.7,T,0.0,M,2.1,N,3.9,K*4d
$GPGGA,083124.00,1559.6927,S,4749.3829,W,12,12,1.0,908.8,M,0.0,M,0.0,0000*74
$GPGSA,A,3,01,02,03,04,05,06,07,08,09,10,11,12,1.2,1.0,0.6*35
$GPGSV,3,1,12,01,45,045,50,02,45,045,50,03,45,045,50,04,45,045,50*7c
$GPGSV,3,2,12,05,45,045,50,06,45,045,50,07,45,045,50,08,45,045,50*77
$GPGSV,3,3,12,09,45,045,50,10,45,045,50,11,45,045,50,12,45,045,50*71
$GPRMC,083125.00,A,1559.6933,S,4749.3825,W,3.0,148.4,181016,0.0,E,A*07
$GPVTG,148.4,T,0.0,M,3.0,N,5.5,K*44
$GPGGA,083125.00,1559.6933,S,4749.3825,W,12,12,1.0,908.9,M,0.0,M,0.0,0000*7d
$GPGSA,A,3,01,02,03,04,05,06,07,08,09,10,11,12,1.2,1.0,0.6*35
$GPGSV,3,1,12,01,45,045,50,02,45,045,50,03,45,045,50,04,45,045,50*7c
$GPGSV,3,2,12,05,45,045,50,06,45,045,50,07,45,045,50,08,45,045,50*77
$GPGSV,3,3,12,09,45,045,50,10,45,045,50,11,45,045,50,12,45,045,50*71
$GPRMC,083126.00,A,1559.6940,S,4749.3820,W,2.7,148.4,181016,0.0,E,A*03
$GPVTG,148.4,T,0.0,M,2.7,N,5.0,K*47
$GPGGA,083126.00,1559.6940,S,4749.3820,W,12,12,1.0,908.9,M,0.0,M,0.0,0000*7f
$GPGSA,A,3,01,02,03,04,05,06,07,08,09,10,11,12,1.2,1.0,0.6*35
$GPGSV,3,1,12,01,45,045,50,02,45,045,50,03,45,045,50,04,45,045,50*7c
$GPGSV,3,2,12,05,45,045,50,06,45,045,50,07,45,045,50,08,45,045,50*77
$GPGSV,3,3,12,09,45,045,50,10,45,045,50,11,45,045,50,12,45,045,50*71
$GPRMC,083127.00,A,1559.6945,S,4749.3816,W,2.7,148.4,181016,0.0,E,A*02
$GPVTG,148.4,T,0.0,M,2.7,N,5.0,K*47
$GPGGA,083127.00,1559.6945,S,4749.3816,W,12,12,1.0,908.8,M,0.0,M,0.0,0000*7f
$GPGSA,A,3,01,02,03,04,05,06,07,08,09,10,11,12,1.2,1.0,0.6*35
$GPGSV,3,1,12,01,45,045,50,02,45,045,50,03,45,045,50,04,45,045,50*7c
$GPGSV,3,2,12,05,45,045,50,06,45,045,50,07,45,045,50,08,45,045,50*77
$GPGSV,3,3,12,09,45,045,50,10,45,045,50,11,45,045,50,12,45,045,50*71
$GPRMC,083128.00,A,1559.6950,S,4749.3812,W,2.3,148.4,181016,0.0,E,A*09
$GPVTG,148.4,T,0.0,M,2.3,N,4.3,K*41
$GPGGA,083128.00,1559.6950,S,4749.3812,W,12,12,1.0,908.8,M,0.0,M,0.0,0000*70
$GPGSA,A,3,01,02,03,04,05,06,07,08,09,10,11,12,1.2,1.0,0.6*35
$GPGSV,3,1,12,01,45,045,50,02,45,045,50,03,45,045,50,04,45,045,50*7c
$GPGSV,3,2,12,05,45,045,50,06,45,045,50,07,45,045,50,08,45,045,50*77
$GPGSV,3,3,12,09,45,045,50,10,45,045,50,11,45,045,50,12,45,045,50*71
$GPRMC,083129.00,A,1559.6955,S,4749.3808,W,2.1,137.8,181016,0.0,E,A*00
$GPVTG,137.8,T,0.0,M,2.1,N,3.9,K*4a
$GPGGA,083129.00,1559.6955,S,4749.3808,W,12,12,1.0,908.8,M,0.0,M,0.0,0000*7f
$GPGSA,A,3,01,02,03,04,05,06,07,08,09,10,11,12,1.2,1.0,0.6*35
$GPGSV,3,1,12,01,45,045,50,02,45,045,50,03,45,045,50,04,45,045,50*7c
$GPGSV,3,2,12,05,45,045,50,06,45,045,50,07,45,045,50,08,45,045,50*77
$GPGSV,3,3,12,09,45,045,50,10,45,045,50,11,45,045,50,12,45,045,50*71
$GPRMC,083130.00,A,1559.6960,S,4749.3803,W,2.6,106.9,181016,0.0,E,A*01
$GPVTG,106.9,T,0.0,M,2.6,N,4.8,K*48
$GPGGA,083130.00,1559.6960,S,4749.3803,W,12,12,1.0,908.8,M,0.0,M,0.0,0000*7a
$GPGSA,A,3,01,02,03,04,05,06,07,08,09,10,11,12,1.2,1.0,0.6*35
$GPGSV,3,1,12,01,45,045,50,02,45,045,50,03,45,045,50,04,45,045,50*7c
$GPGSV,3,2,12,05,45,045,50,06,45,045,50,07,45,045,50,08,45,045,50*77
$GPGSV,3,3,12,09,45,045,50,10,45,045,50,11,45,045,50,12,45,045,50*71
$GPRMC,083131.00,A,1559.6963,S,4749.3796,W,2.2,107.6,181016,0.0,E,A*0a
$GPVTG,107.6,T,0.0,M,2.2,N,4.0,K*4a
$GPGGA,083131.00,1559.6963,S,4749.3796,W,12,12,1.0,908.7,M,0.0,M,0.0,0000*74
$GPGSA,A,3,01,02,03,04,05,06,07,08,09,10,11,12,1.2,1.0,0.6*35
$GPGSV,3,1,12,01,45,045,50,02,45,045,50,03,45,045,50,04,45,045,50*7c
$GPGSV,3,2,12,05,45,045,50,06,45,045,50,07,45,045,50,08,45,045,50*77
$GPGSV,3,3,12,09,45,045,50,10,45,045,50,11,45,045,50,12,45,045,50*71
$GPRMC,083132.00,A,1559.6965,S,4749.3789,W,2.2,125.9,181016,0.0,E,A*0e
$GPVTG,125.9,T,0.0,M,2.2,N,4.0,K*45
$GPGGA,083132.00,1559.6965,S,4749.3789,W,12,12,1.0,908.7,M,0.0,M,0.0,0000*7f
$GPGSA,A,3,01,02,03,04,05,06,07,08,09,10,11,12,1.2,1.0,0.6*35
$GPGSV,3,1,12,01,45,045,50,02,45,045,50,03,45,045,50,04,45,045,50*7c
$GPGSV,3,2,12,05,45,045,50,06,45,045,50,07,45,045,50,08,45,045,50*77
$GPGSV,3,3,12,09,45,045,50,10,45,045,50,11,45,045,50,12,45,045,50*71
$GPRMC,083133.00,A,1559.6968,S,4749.3782,W,2.2,125.9,181016,0.0,E,A*09
$GPVTG,125.9,T,0.0,M,2.2,N,4.0,K*45
$GPGGA,083133.00,1559.6968,S,4749.3782,W,12,12,1.0,908.6,M,0.0,M,0.0,0000*79
$GPGSA,A,3,01,02,03,04,05,06,07,08,09,10,11,12,1.2,1.0,0.6*35
$GPGSV,3,1,12,01,45,045,50,02,45,045,50,03,45,045,50,04,45,045,50*7c
$GPGSV,3,2,12,05,45,045,50,06,45,045,50,07,45,045,50,08,45,045,50*77
$GPGSV,3,3,12,09,45,045,50,10,45,045,50,11,45,045,50,12,45,045,50*71
$GPRMC,083134.00,A,1559.6971,S,4749.3776,W,2.1,125.5,181016,0.0,E,A*02
$GPVTG,125.5,T,0.0,M,2.1,N,3.9,K*44
$GPGGA,083134.00,1559.6971,S,4749.3776,W,12,12,1.0,908.6,M,0.0,M,0.0,0000*7d
$GPGSA,A,3,01,02,03,04,05,06,07,08,09,10,11,12,1.2,1.0,0.6*35
$GPGSV,3,1,12,01,45,045,50,02,45,045,50,03,45,045,50,04,45,045,50*7c
$GPGSV,3,2,12,05,45,045,50,06,45,045,50,07,45,045,50,08,45,045,50*77
$GPGSV,3,3,12,09,45,045,50,10,45,045,50,11,45,045,50,12,45,045,50*71
$GPRMC,083135.00,A,1559.6974,S,4749.3769,W,2.5,117.8,181016,0.0,E,A*00
$GPVTG,117.8,T,0.0,M,2.5,N,4.7,K*45
$GPGGA,083135.00,1559.6974,S,4749.3769,W,12,12,1.0,908.6,M,0.0,M,0.0,0000*77
$GPGSA,A,3,01,02,03,04,05,06,07,08,09,10,11,12,1.2,1.0,0.6*35
$GPGSV,3,1,12,01,45,045,50,02,45,045,50,03,45,045,50,04,45,045,50*7c
$GPGSV,3,2,12,05,45,045,50,06,45,045,50,07,45,045,50,08,45,045,50*77
$GPGSV,3,3,12,09,45,045,50,10,45,045,50,11,45,045,50,12,45,045,50*71
$GPRMC,083136.00,A,1559.6978,S,4749.3761,W,2.5,117.4,181016,0.0,E,A*0b
$GPVTG,117.4,T,0.0,M,2.5,N,4.7,K*49
$GPGGA,083136.00,1559.6978,S,4749.3761,W,12,12,1.0,908.7,M,0.0,M,0.0,0000*71
$GPGSA,A,3,01,02,03,04,05,06,07,08,09,10,11,12,1.2,1.0,0.6*35
$GPGSV,3,1,12,01,45,045,50,02,45,045,50,03,45,045,50,04,45,045,50*7c
$GPGSV,3,2,12,05,45,045,50,06,45,045,50,07,45,045,50,08,45,045,50*77
$GPGSV,3,3,12,09,45,045,50,10,45,045,50,11,45,045,50,12,45,045,50*71
$GPRMC,083137.00,A,1559.6981,S,4749.3753,W,2.5,109.7,181016,0.0,E,A*01
$GPVTG,109.7,T,0.0,M,2.5,N,4.7,K*45
$GPGGA,083137.00,1559.6981,S,4749.3753,W,12,12,1.0,908.5,M,0.0,M,0.0,0000*75
$GPGSA,A,3,01,02,03,04,05,06,07,08,09,10,11,12,1.2,1.0,0.6*35
$GPGSV,3,1,12,01,45,045,50,02,45,045,50,03,45,045,50,04,45,045,50*7c
$GPGSV,3,2,12,05,45,045,50,06,45,045,50,07,45,045,50,08,45,045,50*77
$GPGSV,3,3,12,09,45,045,50,10,45,045,50,11,45,045,50,12,45,045,50*71
$GPRMC,083138.00,A,1559.6983,S,4749.3746,W,2.8,109.7,181016,0.0,E,A*05
$GPVTG,109.7,T,0.0,M,2.8,N,5.2,K*4c
$GPGGA,083138.00,1559.6983,S,4749.3746,W,12,12,1.0,908.4,M,0.0,M,0.0,0000*7d
$GPGSA,A,3,01,02,03,04,05,06,07,08,09,10,11,12,1.2,1.0,0.6*35
$GPGSV,3,1,12,01,45,045,50,02,45,045,50,03,45,045,50,04,45,045,50*7c
$GPGSV,3,2,12,05,45,045,50,06,45,045,50,07,45,045,50,08,45,045,50*77
$GPGSV,3,3,12,09,45,045,50,10,45,045,50,11,45,045,50,12,45,045,50*71
$GPRMC,083139.00,A,1559.6986,S,4749.3738,W,2.8,104.1,181016,0.0,E,A*03
$GPVTG,104.1,T,0.0,M,2.8,N,5.1,K*44
$GPGGA,083139.00,1559.6986,S,4749.3738,W,12,12,1.0,908.6,M,0.0,M,0.0,0000*72
$GPGSA,A,3,01,02,03,04,05,06,07,08,09,10,11,12,1.2,1.0,0.6*35
$GPGSV,3,1,12,01,45,045,50,02,45,045,50,03,45,045,50,04,45,045,50*7c
$GPGSV,3,2,12,05,45,045,50,06,45,045,50,07,45,045,50,08,45,045,50*77
$GPGSV,3,3,12,09,45,045,50,10,45,045,50,11,45,045,50,12,45,045,50*71
$GPRMC,083140.00,A,1559.6988,S,4749.3729,W,2.9,103.4,181016,0.0,E,A*00
$GPVTG,103.4,T,0.0,M,2.9,N,5.4,K*42
$GPGGA,083140.00,1559.6988,S,4749.3729,W,12,12,1.0,908.7,M,0.0,M,0.0,0000*73
$GPGSA,A,3,01,02,03,04,05,06,07,08,09,10,11,12,1.2,1.0,0.6*35
$GPGSV,3,1,12,01,45,045,50,02,45,045,50,03,45,045,50,04,45,045,50*7c
$GPGSV,3,2,12,05,45,045,50,06,45,045,50,07,45,045,50,08,45,045,50*77
$GPGSV,3,3,12,09,45,045,50,10,45,045,50,11,45,045,50,12,45,045,50*71
$GPRMC,083141.00,A,1559.6990,S,4749.3722,W,2.8,117.8,181016,0.0,E,A*0b
$GPVTG,117.8,T,0.0,M,2.8,N,5.1,K*4f
$GPGGA,083141.00,1559.6990,S,4749.3722,W,12,12,1.0,908.5,M,0.0,M,0.0,0000*72
$GPGSA,A,3,01,02,03,04,05,06,07,08,09,10,11,12,1.2,1.0,0.6*35
$GPGSV,3,1,12,01,45,045,50,02,45,045,50,03,45,045,50,04,45,045,50*7c
$GPGSV,3,2,12,05,45,045,50,06,45,045,50,07,45,045,50,08,45,045,50*77
$GPGSV,3,3,12,09,45,045,50,10,45,045,50,11,45,045,50,12,45,045,50*71
$GPRMC,083142.00,A,1559.6992,S,4749.3715,W,2.3,116.0,181016,0.0,E,A*0c
$GPVTG,116.0,T,0.0,M,2.3,N,4.3,K*4e
$GPGGA,083142.00,1559.6992,S,4749.3715,W,12,12,1.0,908.7,M,0.0,M,0.0,0000*75
$GPGSA,A,3,01,02,03,04,05,06,07,08,09,10,11,12,1.2,1.0,0.6*35
$GPGSV,3,1,12,01,45,045,50,02,45,045,50,03,45,045,50,04,45,045,50*7c
$GPGSV,3,2,12,05,45,045,50,06,45,045,50,07,45,045,50,08,45,045,50*77
$GPGSV,3,3,12,09,45,045,50,10,45,045,50,11,45,045,50,12,45,045,50*71
$GPRMC,083143.00,A,1559.6994,S,4749.3708,W,2.8,94.9,181016,0.0,E,A*3e
$GPVTG,94.9,T,0.0,M,2.8,N,5.2,K*77
$GPGGA,083143.00,1559.6994,S,4749.3708,W,12,12,1.0,908.7,M,0.0,M,0.0,0000*7e
$GPGSA,A,3,01,02,03,04,05,06,07,08,09,10,11,12,1.2,1.0,0.6*35
$GPGSV,3,1,12,01,45,045,50,02,45,045,50,03,45,045,50,04,45,045,50*7c
$GPGSV,3,2,12,05,45,045,50,06,45,045,50,07,45,045,50,08,45,045,50*77
$GPGSV,3,3,12,09,45,045,50,10,45,045,50,11,45,045,50,12,45,045,50*71
$GPRMC,083144.00,A,1559.6995,S,4749.3700,W,2.8,107.6,181016,0.0,E,A*04
$GPVTG,107.6,T,0.0,M,2.8,N,5.2,K*43
$GPGGA,083144.00,1559.6995,S,4749.3700,W,12,12,1.0,908.6,M,0.0,M,0.0,0000*71
$GPGSA,A,3,01,02,03,04,05,06,07,08,09,10,11,12,1.2,1.0,0.6*35
$GPGSV,3,1,12,01,45,045,50,02,45,045,50,03,45,045,50,04,45,045,50*7c
$GPGSV,3,2,12,05,45,045,50,06,45,045,50,07,45,045,50,08,45,045,50*77
$GPGSV,3,3,12,09,45,045,50,10,45,045,50,11,45,045,50,12,45,045,50*71
$GPRMC,083145.00,A,1559.6997,S,4749.3692,W,2.7,107.9,181016,0.0,E,A*0d
$GPVTG,107.9,T,0.0,M,2.7,N,5.0,K*41
$GPGGA,083145.00,1559.6997,S,4749.3692,W,12,12,1.0,908.7,M,0.0,M,0.0,0000*79
$GPGSA,A,3,01,02,03,04,05,06,07,08,09,10,11,12,1.2,1.0,0.6*35
$GPGSV,3,1,12,01,45,045,50,02,45,045,50,03,45,045,50,04,45,045,50*7c
$GPGSV,3,2,12,05,45,045,50,06,45,045,50,07,45,045,50,08,45,045,50*77
$GPGSV,3,3,12,09,45,045,50,10,45,045,50,11,45,045,50,12,45,045,50*71
$GPRMC,083146.00,A,1559.6999,S,4749.3685,W,2.7,118.5,181016,0.0,E,A*04
$GPVTG,118.5,T,0.0,M,2.7,N,5.0,K*43
$GPGGA,083146.00,1559.6999,S,4749.3685,W,12,12,1.0,908.9,M,0.0,M,0.0,0000*7c
$GPGSA,A,3,01,02,03,04,05,06,07,08,09,10,11,12,1.2,1.0,0.6*35
$GPGSV,3,1,12,01,45,045,50,02,45,045,50,03,45,045,50,04,45,045,50*7c
$GPGSV,3,2,12,05,45,045,50,06,45,045,50,07,45,045,50,08,45,045,50*77
$GPGSV,3,3,12,09,45,045,50,10,45,045,50,11,45,045,50,12,45,045,50*71
$GPRMC,083147.00,A,1559.7002,S,4749.3679,W,2.3,118.8,181016,0.0,E,A*05
$GPVTG,118.8,T,0.0,M,2.3,N,4.2,K*49
$GPGGA,083147.00,1559.7002,S,4749.3679,W,12,12,1.0,908.6,M,0.0,M,0.0,0000*7b
$GPGSA,A,3,01,02,03,04,05,06,07,08,09,10,11,12,1.2,1.0,0.6*35
$GPGSV,3,1,12,01,45,045,50,02,45,045,50,03,45,045,50,04,45,045,50*7c
$GPGSV,3,2,12,05,45,045,50,06,45,045,50,07,45,045,50,08,45,045,50*77
$GPGSV,3,3,12,09,45,045,50,10,45,045,50,11,45,045,50,12,45,045,50*71
$GPRMC,083148.00,A,1559.7006,S,4749.3675,W,2.4,134.3,181016,0.0,E,A*00
$GPVTG,134.3,T,0.0,M,2.4,N,4.4,K*4d
$GPGGA,083148.00,1559.7006,S,4749.3675,W,12,12,1.0,908.7,M,0.0,M,0.0,0000*7d
$GPGSA,A,3,01,02,03,04,05,06,07,08,09,10,11,12,1.2,1.0,0.6*35
$GPGSV,3,1,12,01,45,045,50,02,45,045,50,03,45,045,50,04,45,045,50*7c
$GPGSV,3,2,12,05,45,045,50,06,45,045,50,07,45,045,50,08,45,045,50*77
$GPGSV,3,3,12,09,45,045,50,10,45,045,50,11,45,045,50,12,45,045,50*71
$GPRMC,083149.00,A,1559.7012,S,4749.3669,W,2.4,134.3,181016,0.0,E,A*09
$GPVTG,134.3,T,0.0,M,2.4,N,4.5,K*4c
$GPGGA,083149.00,1559.7012,S,4749.3669,W,12,12,1.0,908.7,M,0.0,M,0.0,0000*74
$GPGSA,A,3,01,02,03,04,05,06,07,08,09,10,11,12,1.2,1.0,0.6*35
$GPGSV,3,1,12,01,45,045,50,02,45,045,50,03,45,045,50,04,45,045,50*7c
$GPGSV,3,2,12,05,45,045,50,06,45,045,50,07,45,045,50,08,45,045,50*77
$GPGSV,3,3,12,09,45,045,50,10,45,045,50,11,45,045,50,12,45,045,50*71
$GPRMC,083150.00,A,1559.7018,S,4749.3665,W,2.4,130.8,181016,0.0,E,A*08
$GPVTG,130.8,T,0.0,M,2.4,N,4.5,K*43
$GPGGA,083150.00,1559.7018,S,4749.3665,W,12,12,1.0,909.0,M,0.0,M,0.0,0000*7c
$GPGSA,A,3,01,02,03,04,05,06,07,08,09,10,11,12,1.2,1.0,0.6*35
$GPGSV,3,1,12,01,45,045,50,02,45,045,50,03,45,045,50,04,45,045,50*7c
$GPGSV,3,2,12,05,45,045,50,06,45,045,50,07,45,045,50,08,45,045,50*77
$GPGSV,3,3,12,09,45,045,50,10,45,045,50,11,45,045,50,12,45,045,50*71
